City_ID,City,Lat,Lng,Max Temp,Humidity,Cloudiness,Wind Speed,Country,Date
0,Neiafu,-18.65,-173.98,73.4,69,75,5.82,TO,1600109740
1,Kupang,-10.17,123.58,72.23,80,29,9.4,ID,1600109741
2,Albany,42.6,-73.97,73.0,38,0,1.99,US,1600109665
3,Arraial do Cabo,-22.97,-42.03,84.2,65,0,16.11,BR,1600109741
4,East London,-33.02,27.91,57.2,67,0,11.41,ZA,1600109741
5,Castro,-24.79,-50.01,83.98,39,99,4.52,BR,1600109742
6,Bambous Virieux,-20.34,57.76,68.0,52,40,16.11,MU,1600109742
7,Nanortalik,60.14,-45.24,42.35,83,100,25.12,GL,1600109742
8,Thompson,55.74,-97.86,44.6,87,90,4.7,CA,1600109742
9,Hamilton,39.18,-84.53,79.0,53,20,10.29,US,1600109743
10,Port Alfred,-33.59,26.89,58.42,67,0,19.64,ZA,1600109743
11,Minudasht,37.23,55.37,75.2,53,0,3.67,IR,1600109744
12,Atuona,-9.8,-139.03,77.88,76,1,17.11,PF,1600109744
13,Bluff,-46.6,168.33,42.01,89,70,11.99,NZ,1600109744
14,San Vicente,-26.62,-54.13,68.02,70,100,5.19,AR,1600109744
15,Cape Town,-33.93,18.42,55.0,81,40,5.82,ZA,1600109726
16,Ushuaia,-54.8,-68.3,42.8,61,20,4.7,AR,1600109671
17,Lebu,-37.62,-73.65,52.95,67,0,24.96,CL,1600109575
18,Hermanus,-34.42,19.23,48.0,89,51,5.19,ZA,1600109745
19,Avarua,-21.21,-159.78,69.8,77,86,10.29,CK,1600109573
20,Hobart,-42.88,147.33,53.6,54,90,9.17,AU,1600109552
21,Patea,-39.76,174.48,57.0,81,0,10.0,NZ,1600109746
22,Tuatapere,-46.13,167.68,42.01,90,36,11.99,NZ,1600109378
23,Mapimí,25.82,-103.85,80.6,57,75,11.41,MX,1600109746
24,Rikitea,-23.12,-134.97,73.58,80,0,12.41,PF,1600109747
25,Ambon City,-3.7,128.18,77.9,79,27,14.16,ID,1600109747
26,Saint Paul Harbor,57.79,-152.41,51.8,76,1,0.83,US,1600109747
27,Jamestown,42.1,-79.24,62.01,59,20,11.41,US,1600109500
28,Lompoc,34.64,-120.46,62.6,77,40,6.93,US,1600109748
29,Ulaangom,49.98,92.07,44.58,58,0,2.24,MN,1600109748
30,Hilo,19.73,-155.09,78.8,69,1,3.36,US,1600109748
31,Pimentel,-6.84,-79.93,69.8,64,20,12.75,PE,1600109749
32,Narón,43.52,-8.15,69.8,77,20,3.36,ES,1600109749
33,Saskylakh,71.92,114.08,42.82,81,100,1.5,RU,1600109749
34,Coyhaique,-45.58,-72.07,50.0,61,75,8.05,CL,1600109750
35,Murdochville,48.96,-65.5,48.13,62,93,20.62,CA,1600109750
36,Pontianak,-0.03,109.33,73.2,92,97,3.24,ID,1600109750
37,Rawson,-43.3,-65.1,68.14,27,1,20.69,AR,1600109750
38,Esperance,-33.87,121.9,51.8,93,79,12.75,AU,1600109751
39,Locri,38.24,16.26,78.8,78,77,12.75,IT,1600109751
40,Mataura,-46.19,168.86,42.01,89,24,11.99,NZ,1600109751
41,Butaritari,3.07,172.79,83.35,71,100,19.46,KI,1600109751
42,Airai,-8.93,125.41,53.31,97,1,3.0,TL,1600109752
43,Busselton,-33.65,115.33,55.0,59,0,8.01,AU,1600109752
44,Vaini,-21.2,-175.2,69.8,83,75,5.82,TO,1600109575
45,Ciudad Bolivar,8.12,-63.55,93.78,40,0,6.53,VE,1600109752
46,Qaanaaq,77.48,-69.36,30.33,94,90,8.95,GL,1600109753
47,Nova Venécia,-18.71,-40.4,85.53,36,0,5.23,BR,1600109753
48,Barrow,71.29,-156.79,37.4,93,90,8.05,US,1600109753
49,Staszów,50.56,21.17,70.0,67,62,2.51,PL,1600109753
50,Ribeira Grande,38.52,-28.7,69.8,49,20,14.99,PT,1600109754
51,Haines Junction,60.75,-137.51,48.79,49,56,1.21,CA,1600109754
52,Bykov,47.32,142.55,42.8,93,20,6.71,RU,1600109755
53,Baturaja,-4.13,104.17,74.17,92,9,1.21,ID,1600109755
54,Cabo San Lucas,22.89,-109.91,87.8,74,40,4.7,MX,1600109679
55,Presidente Epitácio,-21.76,-52.12,100.72,11,0,7.47,BR,1600109756
56,Oktyabr'skoye,43.06,44.74,64.4,88,0,2.24,RU,1600109756
57,Oktyabr'skiy,54.48,53.47,45.95,91,0,7.67,RU,1600109756
58,Erzin,36.96,36.2,82.0,78,2,0.22,TR,1600109757
59,Zhigansk,66.77,123.37,42.82,94,0,11.68,RU,1600109757
60,Saint-Philippe,-21.36,55.77,66.2,55,75,26.4,RE,1600109757
61,Mount Gambier,-37.83,140.77,46.4,93,90,5.82,AU,1600109757
62,Sitka,57.05,-135.33,55.4,62,1,4.09,US,1600109758
63,Chui,-33.7,-53.46,55.98,54,0,11.39,UY,1600109758
64,Los Llanos de Aridane,28.66,-17.92,77.0,73,75,6.93,ES,1600109758
65,Limbang,4.75,115.0,77.0,94,75,4.7,MY,1600109758
66,Bida,9.08,6.02,77.0,79,92,2.48,NG,1600109759
67,Fort-Shevchenko,44.51,50.26,69.62,61,79,12.62,KZ,1600109759
68,San Patricio,19.22,-104.7,91.4,63,75,12.75,MX,1600109759
69,Petropavlovsk-Kamchatskiy,53.05,158.65,37.4,93,0,11.18,RU,1600109760
70,Punta Arenas,-53.15,-70.92,44.6,65,40,32.21,CL,1600109760
71,Talnakh,69.49,88.4,46.4,100,100,8.95,RU,1600109760
72,Alakurtti,66.97,30.35,41.0,94,98,7.56,RU,1600109760
73,Ilulissat,69.22,-51.1,30.2,50,5,5.82,GL,1600109761
74,Tasiilaq,65.61,-37.64,29.39,98,62,2.26,GL,1600109761
75,Piaçabuçu,-10.41,-36.43,77.14,76,99,11.88,BR,1600109589
76,Sydney,-33.87,151.21,60.8,87,75,5.82,AU,1600109233
77,Sioux Lookout,50.1,-91.92,55.4,54,90,5.82,CA,1600109762
78,Port Lincoln,-34.73,135.87,51.98,86,99,7.74,AU,1600109763
79,Rakiv Lis,51.62,24.92,61.97,80,100,4.81,UA,1600109763
80,Mar del Plata,-38.0,-57.56,60.8,25,0,8.05,AR,1600109763
81,Dingle,11.0,122.67,75.15,92,100,1.9,PH,1600109764
82,Nkayi,-4.18,13.29,79.61,63,58,8.23,CG,1600109764
83,São Gabriel da Cachoeira,-0.13,-67.09,75.2,94,90,12.75,BR,1600109764
84,Chickasha,35.05,-97.94,77.0,61,40,10.29,US,1600109764
85,Cherëmukhovo,60.35,59.99,47.89,97,100,3.69,RU,1600109765
86,Assiniboia,49.63,-105.98,79.5,19,65,8.95,CA,1600109765
87,Kapaa,22.08,-159.32,79.0,88,75,5.82,US,1600109574
88,Caravelas,-17.71,-39.25,77.63,63,0,8.52,BR,1600109766
89,Bredasdorp,-34.53,20.04,48.2,76,3,5.82,ZA,1600109766
90,Soe,-9.86,124.28,60.84,99,66,4.99,ID,1600109766
91,Nikolskoye,59.7,30.79,55.99,81,0,11.18,RU,1600109767
92,Sakakah,29.97,40.21,96.8,9,85,3.36,SA,1600109767
93,Price,39.6,-110.81,75.2,16,1,3.36,US,1600109641
94,Coquimbo,-29.95,-71.34,57.2,76,75,14.99,CL,1600109767
95,Mehamn,71.04,27.85,46.4,93,90,10.29,NO,1600109768
96,Saint George,37.1,-113.58,89.01,14,1,4.7,US,1600109599
97,Inverell,-29.78,151.12,50.0,92,4,4.5,AU,1600109768
98,Paita,-5.09,-81.11,77.0,61,26,14.99,PE,1600109768
99,Esna,25.29,32.55,95.0,24,0,6.93,EG,1600109769
100,Geraldton,-28.77,114.6,51.8,93,0,6.93,AU,1600109769
101,Waingapu,-9.66,120.26,72.77,82,0,6.51,ID,1600109769
102,Forsytheganj,52.63,29.73,58.35,92,13,6.91,BY,1600109769
103,Tuktoyaktuk,69.45,-133.04,33.8,93,90,10.29,CA,1600109770
104,Yaring,6.87,101.37,77.97,82,93,6.15,TH,1600109770
105,Clyde River,70.47,-68.59,41.0,80,75,11.41,CA,1600109770
106,Honningsvåg,70.98,25.97,46.4,93,90,10.29,NO,1600109771
107,George Town,5.41,100.34,80.6,83,20,2.19,MY,1600109771
108,Bengkulu,-3.8,102.27,75.76,91,83,3.89,ID,1600109771
109,Fairbanks,64.84,-147.72,48.0,86,90,1.59,US,1600109771
110,Chokurdakh,70.63,147.92,38.57,96,12,8.57,RU,1600109772
111,Bālurghāt,25.22,88.77,79.61,89,100,4.59,IN,1600109772
112,Rio Grande,-32.03,-52.1,57.99,62,100,7.0,BR,1600109656
113,Ishikawa,26.42,127.82,80.6,83,75,4.7,JP,1600109772
114,Yumen,40.28,97.2,49.21,40,0,6.85,CN,1600109773
115,Mokolo,10.74,13.8,70.48,90,81,3.06,CM,1600109773
116,Kiryat Gat,31.61,34.76,82.99,100,0,6.73,IL,1600109773
117,Mollendo,-17.02,-72.01,62.1,71,89,5.84,PE,1600109773
118,Samarai,-10.62,150.67,78.53,84,100,11.88,PG,1600109774
119,Pevek,69.7,170.31,39.45,86,100,7.11,RU,1600109774
120,Tezu,27.92,96.17,75.11,87,99,2.84,IN,1600109774
121,Ipilan,8.84,117.9,80.28,81,95,4.85,PH,1600109774
122,Constitución,-35.33,-72.42,62.26,49,0,13.82,CL,1600109775
123,Diré,12.28,-10.97,79.63,85,99,2.55,ML,1600109775
124,Khatanga,71.97,102.5,45.61,83,70,3.24,RU,1600109775
125,Acapulco de Juárez,16.86,-99.89,86.0,74,75,3.36,MX,1600109547
126,Nizwá,22.93,57.53,85.46,30,97,1.57,OM,1600109776
127,Hong Kong,22.29,114.16,84.2,79,40,12.75,HK,1600109776
128,Dikson,73.51,80.55,42.84,87,100,12.08,RU,1600109776
129,Kavieng,-2.57,150.8,82.6,78,97,14.47,PG,1600109776
130,Puerto Ayora,-0.74,-90.35,77.0,65,20,18.34,EC,1600109777
131,Laas,46.62,10.7,64.4,77,5,3.36,IT,1600109777
132,Quelimane,-17.88,36.89,75.2,83,0,16.11,MZ,1600109777
133,Ankazoabo,-22.28,44.52,75.15,57,99,3.58,MG,1600109778
134,Lavrentiya,65.58,-171.0,43.47,96,100,9.48,RU,1600109778
135,Beaverlodge,55.22,-119.44,41.0,100,90,14.99,CA,1600109778
136,Portland,45.52,-122.68,62.6,82,90,2.46,US,1600109647
137,Vanimo,-2.67,141.3,78.21,85,100,5.48,PG,1600109779
138,Cayenne,4.93,-52.33,91.4,52,17,4.7,GF,1600109779
139,New Norfolk,-42.78,147.06,53.01,63,21,5.01,AU,1600109779
140,Norman Wells,65.28,-126.83,41.0,80,75,6.53,CA,1600109779
141,Hithadhoo,-0.6,73.08,81.77,67,65,4.99,MV,1600109780
142,Dali,25.7,100.18,62.71,87,100,4.43,CN,1600109780
143,Toumodi,6.56,-5.02,78.8,88,40,4.7,CI,1600109780
144,Camacupa,-12.02,17.48,71.33,25,0,2.42,AO,1600109781
145,Saldanha,-33.01,17.94,51.8,71,89,5.82,ZA,1600109781
146,Shimoda,34.67,138.95,66.99,96,48,5.03,JP,1600109781
147,Warri,5.52,5.75,77.43,86,100,5.91,NG,1600109782
148,Cherskiy,68.75,161.3,41.81,79,86,5.91,RU,1600109782
149,Mongo,12.18,18.69,74.3,87,91,3.78,TD,1600109782
150,Lithakia,37.72,20.83,82.4,48,0,9.17,GR,1600109782
151,Kamenka,51.32,42.77,53.96,58,68,6.64,RU,1600109783
152,Ambunti,-4.24,142.84,73.11,99,100,0.43,PG,1600109783
153,Ostrovnoy,68.05,39.51,47.64,91,99,3.89,RU,1600109783
154,Rockport,28.02,-97.05,90.0,70,75,9.17,US,1600109657
155,Daman,20.42,72.85,80.37,84,100,6.13,IN,1600109784
156,Villefontaine,45.61,5.15,84.2,35,47,8.05,FR,1600109784
157,Provideniya,64.38,-173.3,45.27,94,99,6.33,RU,1600109784
158,Ternate,0.8,127.4,79.59,80,100,5.64,ID,1600109532
159,Grenville,12.12,-61.62,87.8,74,40,11.41,GD,1600109595
160,Togur,58.36,82.83,46.06,95,0,4.52,RU,1600109785
161,Lorengau,-2.02,147.27,82.51,76,90,10.36,PG,1600109785
162,Nizhnedevitsk,51.54,38.37,64.4,52,75,20.13,RU,1600109785
163,Asău,46.43,26.4,63.0,81,0,3.8,RO,1600109786
164,Pangnirtung,66.15,-65.71,42.8,70,90,11.41,CA,1600109786
165,Mitsamiouli,-11.38,43.28,77.05,77,1,1.48,KM,1600109786
166,Vostok,46.49,135.88,44.67,63,100,2.39,RU,1600109786
167,Asentamiento Humano Nicolas de Pierola,-11.95,-76.7,64.4,77,90,8.05,PE,1600109787
168,Flinders,-34.58,150.86,60.01,88,98,1.99,AU,1600109787
169,Lagoa,39.05,-27.98,66.36,65,52,21.36,PT,1600109787
170,Tateyama,34.98,139.87,73.99,85,13,1.99,JP,1600109787
171,Sisimiut,66.94,-53.67,38.73,68,5,5.26,GL,1600109561
172,Palmer,42.16,-72.33,75.2,38,75,16.11,US,1600109534
173,Mosquera,4.71,-74.23,68.0,45,75,11.41,CO,1600109788
174,Vuktyl,63.86,57.31,47.12,89,100,9.01,RU,1600109788
175,Turbat,26.0,63.04,92.39,14,69,2.3,PK,1600109789
176,Puerto Limón,10.0,-83.03,86.0,74,75,5.82,CR,1600109616
177,Berdsk,54.76,83.1,42.8,100,61,2.24,RU,1600109789
178,Kingaroy,-26.53,151.83,48.2,93,1,3.83,AU,1600109789
179,Katobu,-4.94,122.53,71.51,83,1,3.47,ID,1600109789
180,Pozo Colorado,-23.49,-58.8,73.09,62,100,11.32,PY,1600109790
181,Leningradskiy,69.38,178.42,40.03,95,100,9.33,RU,1600109790
182,Ojinaga,29.57,-104.42,66.2,100,90,11.41,MX,1600109790
183,Kourou,5.16,-52.65,91.4,52,84,4.7,GF,1600109791
184,Chanika,-5.42,38.02,68.43,92,45,7.25,TZ,1600109791
185,Hokitika,-42.72,170.97,50.11,71,99,20.04,NZ,1600109791
186,Mpanda,-6.37,31.04,77.67,39,96,3.36,TZ,1600109791
187,Bonfim,3.08,-59.95,89.94,57,94,8.72,BR,1600109792
188,Westport,41.14,-73.36,75.99,47,40,11.41,US,1600109691
189,San Quintín,30.48,-115.95,81.88,47,0,11.7,MX,1600109792
190,Salima,-13.78,34.46,71.92,61,0,2.68,MW,1600109792
191,Pangai,-19.8,-174.35,71.6,83,20,9.17,TO,1600109793
192,Fare,-16.7,-151.02,78.91,73,10,11.27,PF,1600109793
193,Borogontsy,62.67,131.17,41.88,92,1,7.43,RU,1600109794
194,Faanui,-16.48,-151.75,78.21,74,0,11.36,PF,1600109794
195,Takahagi,36.72,140.72,69.01,93,100,1.01,JP,1600109794
196,Zhangzhou,24.51,117.66,78.8,83,75,6.71,CN,1600109794
197,Waziers,50.39,3.11,78.8,41,0,5.82,FR,1600109795
198,Sierra Vista,31.55,-110.3,82.0,32,1,8.05,US,1600109732
199,Omsukchan,62.53,155.8,32.86,92,0,2.1,RU,1600109795
200,Prymors'k,46.73,36.34,71.02,42,0,13.35,UA,1600109797
201,Severo-Kuril'sk,50.68,156.12,49.93,84,16,13.35,RU,1600109798
202,Bethel,41.37,-73.41,73.99,49,20,13.87,US,1600109614
203,Gravdal,68.12,13.5,50.0,87,75,5.82,NO,1600109798
204,Vila,42.03,-8.16,71.01,67,98,8.99,PT,1600109798
205,Panguna,-6.32,155.48,67.35,95,100,2.13,PG,1600109799
206,Ndélé,8.41,20.65,71.31,96,94,3.71,CF,1600109799
207,Jadu,31.95,12.03,70.74,71,49,8.12,LY,1600109799
208,Vila Velha,-20.33,-40.29,80.01,57,0,17.22,BR,1600109799
209,Thyborøn,56.7,8.21,62.01,58,0,9.15,DK,1600109800
210,Port Elizabeth,-33.92,25.57,57.2,67,0,27.51,ZA,1600109800
211,Plast,54.37,60.81,52.41,68,100,5.55,RU,1600109800
212,Union,40.63,-74.27,75.99,44,75,9.17,US,1600109570
213,Matagami,49.75,-77.63,48.2,61,75,16.11,CA,1600109800
214,São Filipe,14.9,-24.5,80.15,80,81,6.71,CV,1600109801
215,Tiksi,71.69,128.87,39.85,88,5,8.72,RU,1600109801
216,Yeppoon,-23.13,150.73,62.6,93,35,5.82,AU,1600109801
217,Isangel,-19.55,169.27,69.8,88,40,4.7,VU,1600109802
218,Ponta Delgada,37.73,-25.67,69.8,60,20,16.11,PT,1600109802
219,Lüderitz,-26.65,15.16,57.69,61,0,23.76,NA,1600109802
220,Cabedelo,-6.98,-34.83,82.4,65,75,14.99,BR,1600109802
221,Colac,-38.33,143.58,45.0,98,29,5.08,AU,1600109803
222,Diamantino,-14.41,-56.45,103.28,11,0,7.7,BR,1600109803
223,Santa Cruz del Sur,20.71,-78.0,86.92,65,100,6.78,CU,1600109803
224,Oistins,13.07,-59.53,89.6,66,40,16.11,BB,1600109614
225,Kursk,51.73,36.19,63.0,59,75,11.18,RU,1600109804
226,Saravan,39.72,45.65,78.8,31,40,4.7,AM,1600109804
227,Mangaratiba,-22.96,-44.04,100.4,19,0,3.36,BR,1600109805
228,Hofn,64.25,-15.21,46.4,81,75,10.29,IS,1600109805
229,Yellowknife,62.46,-114.35,45.0,52,40,14.99,CA,1600109805
230,Broken Hill,-31.95,141.43,50.0,71,0,5.82,AU,1600109805
231,Basoko,1.24,23.62,74.26,89,88,2.17,CD,1600109806
232,Abapó,-18.83,-63.47,65.86,80,99,3.98,BO,1600109806
233,Marathon,44.9,-89.77,64.0,55,75,6.93,US,1600109806
234,Kuching,1.55,110.33,77.0,94,40,2.77,MY,1600109806
235,Ancud,-41.87,-73.82,54.0,97,100,15.01,CL,1600109533
236,Alofi,-19.06,-169.92,71.6,78,75,8.05,NU,1600109527
237,Xinpu,34.6,119.16,66.72,90,78,3.58,CN,1600109807
238,Carnarvon,-24.87,113.63,69.8,100,46,12.75,AU,1600109807
239,Vestmanna,62.16,-7.17,48.2,87,100,6.93,FO,1600109808
240,Waitara,-38.92,174.25,52.0,91,80,11.01,NZ,1600109808
241,Vanavara,60.34,102.28,50.92,77,100,3.74,RU,1600109808
242,Shar,49.59,81.05,62.78,36,100,5.17,KZ,1600109808
243,Guerrero Negro,27.98,-114.06,92.1,28,0,2.48,MX,1600109809
244,Praia,14.92,-23.51,80.73,78,91,6.24,CV,1600109809
245,Gimli,50.63,-96.99,60.01,99,100,3.0,CA,1600109510
246,Bosaso,11.28,49.18,91.58,52,0,2.46,SO,1600109809
247,Yazman,29.12,71.74,98.04,25,0,8.28,PK,1600109810
248,Kahului,20.89,-156.47,80.6,57,40,6.93,US,1600109810
249,Buala,-8.14,159.59,80.01,80,100,7.07,SB,1600109810
250,Tautira,-17.73,-149.15,80.6,69,20,8.05,PF,1600109810
251,Faya,18.39,42.45,71.6,77,92,4.0,SA,1600109814
252,Ponta do Sol,32.67,-17.1,77.0,69,20,5.82,PT,1600109814
253,Nizhniy Odes,63.64,54.86,46.02,97,97,4.61,RU,1600109815
254,Salalah,17.02,54.09,80.6,88,75,5.82,OM,1600109815
255,Praia da Vitória,38.73,-27.07,72.0,64,40,18.21,PT,1600109815
256,Fortuna,40.6,-124.16,62.01,87,40,4.7,US,1600109588
257,Zverinogolovskoye,54.46,64.85,54.09,63,100,10.67,RU,1600109815
258,Kaitangata,-46.28,169.85,46.0,61,5,15.01,NZ,1600109816
259,Pisco,-13.7,-76.22,68.0,72,98,9.17,PE,1600109816
260,Roebourne,-20.78,117.13,76.03,41,0,8.7,AU,1600109816
261,Kisangani,0.52,25.2,76.48,78,81,1.3,CD,1600109817
262,Elko,41.0,-115.5,82.99,9,1,17.38,US,1600109817
263,Matara,5.95,80.54,78.53,87,73,9.64,LK,1600109818
264,Hasaki,35.73,140.83,69.8,94,75,5.82,JP,1600109818
265,Messias,-9.38,-35.84,82.4,54,40,11.41,BR,1600109818
266,Kaeo,-35.1,173.78,52.0,3,54,1.01,NZ,1600109818
267,Balakhta,55.38,91.6,45.39,86,0,3.11,RU,1600109819
268,Solhan,38.96,41.03,68.49,25,0,4.61,TR,1600109819
269,Mīrābād,30.44,61.84,72.68,21,0,15.46,AF,1600109819
270,Labytnangi,66.66,66.42,49.17,93,100,13.69,RU,1600109820
271,Río Cuarto,-33.13,-64.35,68.0,13,0,28.86,AR,1600109820
272,Marawi,8.0,124.29,73.0,96,100,5.01,PH,1600109820
273,Ulaanbaatar,47.91,106.88,35.6,93,75,6.71,MN,1600109821
274,Saint-Pierre,-21.34,55.48,66.2,55,1,26.4,RE,1600109821
275,Beringovskiy,63.05,179.32,45.43,91,100,9.78,RU,1600109822
276,Abhā,18.22,42.51,71.6,77,80,5.73,SA,1600109822
277,Baykit,61.67,96.37,48.18,84,21,1.74,RU,1600109822
278,Aklavik,68.22,-135.01,41.0,80,75,10.29,CA,1600109823
279,Løten,60.82,11.34,61.0,87,31,1.01,NO,1600109823
280,Tres Arroyos,-38.37,-60.28,60.66,39,0,13.73,AR,1600109823
281,Broome,42.25,-75.83,66.0,51,40,16.11,US,1600109574
282,Barão de Melgaço,-16.19,-55.97,102.2,10,40,2.24,BR,1600109824
283,Susuman,62.78,148.17,37.56,77,20,0.36,RU,1600109824
284,Perth,-31.93,115.83,64.4,42,0,8.05,AU,1600109764
285,Vacaria,-28.51,-50.93,55.81,87,100,9.69,BR,1600109825
286,Inongo,-1.95,18.27,73.65,79,46,4.16,CD,1600109825
287,Aykino,62.22,49.99,47.86,92,93,9.57,RU,1600109825
288,Ketchikan,55.34,-131.65,60.8,59,1,9.17,US,1600109826
289,Severobaykal'sk,55.65,109.32,45.37,91,100,11.54,RU,1600109826
290,Gambo,4.65,22.26,71.22,95,51,1.92,CF,1600109826
291,Christchurch,-43.53,172.63,51.01,61,0,12.75,NZ,1600109727
292,Dicabisagan,17.08,122.42,79.07,81,100,5.26,PH,1600109826
293,Malbork,54.04,19.03,64.4,68,100,3.36,PL,1600109828
294,Pilar,-9.6,-35.96,82.4,54,40,11.41,BR,1600109828
295,Kikwit,-5.04,18.82,81.99,54,83,2.68,CD,1600109828
296,Mawlaik,23.63,94.42,76.91,95,100,1.57,MM,1600109829
297,Tulsīpur,28.13,82.3,84.99,93,100,2.37,NP,1600109829
298,Quimper,48.0,-4.1,66.2,82,100,3.36,FR,1600109829
299,Natal,-5.79,-35.21,82.4,65,40,17.22,BR,1600109830
300,Samaná,19.21,-69.34,87.8,70,75,4.7,DO,1600109830
301,Port-Cartier,50.03,-66.87,59.0,50,40,16.11,CA,1600109830
302,Naryan-Mar,67.67,53.09,46.51,89,44,5.79,RU,1600109830
303,Mahébourg,-20.41,57.7,68.0,52,40,16.11,MU,1600109831
304,Puerto Escondido,15.85,-97.07,86.0,66,75,8.05,MX,1600109831
305,The Valley,18.22,-63.06,91.4,70,20,9.17,AI,1600109831
306,Renfrew,55.87,-4.39,61.0,87,99,1.12,GB,1600109832
307,Yebaishou,41.4,119.64,60.06,92,100,2.93,CN,1600109832
308,Beipiao,41.79,120.78,60.4,94,100,1.03,CN,1600109832
309,Buraidah,26.33,43.98,93.2,15,0,2.24,SA,1600109799
310,Elizabeth City,36.29,-76.25,79.0,88,90,10.29,US,1600109833
311,Pacific Grove,36.62,-121.92,61.0,87,90,6.62,US,1600109550
312,Kismayo,-0.36,42.55,77.63,85,100,14.79,SO,1600109833
313,San Joaquin,10.26,-67.79,85.46,62,23,5.59,VE,1600109834
314,Iralaya,15.0,-83.23,80.6,88,75,7.25,HN,1600109834
315,Margate,51.38,1.39,68.0,65,0,9.57,GB,1600109834
316,Chisec,15.82,-90.28,86.2,67,66,3.62,GT,1600109834
317,Haimen,23.19,116.61,80.6,88,40,4.47,CN,1600109835
318,Kavaratti,10.57,72.64,81.79,80,100,20.33,IN,1600109821
319,Nouadhibou,20.93,-17.03,86.0,55,0,19.46,MR,1600109835
320,Tura,25.52,90.22,72.57,96,100,3.89,IN,1600109766
321,Codrington,-38.27,141.97,45.27,93,100,6.51,AU,1600109836
322,Clarence Town,-32.58,151.78,55.0,100,40,1.34,AU,1600109836
323,Kinablangan,7.69,126.55,78.55,86,100,4.59,PH,1600109836
324,Millinocket,45.66,-68.71,62.6,42,1,17.22,US,1600109836
325,Mlalo,-4.93,38.93,71.1,92,0,3.96,TZ,1600109837
326,Kargil,34.57,76.1,51.66,46,0,7.78,IN,1600109838
327,Aginskoye,51.1,114.53,42.66,82,100,3.27,RU,1600109838
328,Mets Masrik,40.22,45.77,57.2,63,93,1.34,AM,1600109838
329,Lufilufi,-13.87,-171.6,71.6,100,75,17.27,WS,1600109839
330,Sibolga,1.74,98.78,76.82,74,57,3.29,ID,1600109839
331,Hervey Bay,-25.3,152.85,60.01,91,1,3.0,AU,1600109839
332,Hobyo,5.35,48.53,78.22,85,0,28.7,SO,1600109839
333,La Constancia,24.22,-107.19,93.0,63,40,6.33,MX,1600109840
334,Ati,13.22,18.34,82.58,66,58,9.04,TD,1600109840
335,Ayan,56.45,138.17,59.81,74,100,6.38,RU,1600109840
336,Bilma,18.69,12.92,98.37,11,84,10.18,NE,1600109841
337,Sabha,27.04,14.43,82.36,29,0,3.18,LY,1600109841
338,Port Augusta,-32.5,137.77,48.99,93,0,5.82,AU,1600109842
339,Deputatsky,69.3,139.9,35.73,90,100,4.43,RU,1600109842
340,Dābhol,17.6,73.17,75.69,91,99,2.95,IN,1600109842
341,Marrakesh,31.63,-8.01,89.6,35,20,6.93,MA,1600109736
342,Kaura Namoda,12.59,6.58,79.0,76,91,8.05,NG,1600109843
343,Naze,28.37,129.48,77.0,94,75,2.24,JP,1600109843
344,Tomatlán,19.93,-105.25,91.53,55,1,6.15,MX,1600109843
345,Stornoway,58.21,-6.39,57.2,93,100,10.29,GB,1600109844
346,Aktau,43.65,51.2,62.6,82,1,6.71,KZ,1600109844
347,Tanout,14.97,8.89,96.26,18,9,8.46,NE,1600109821
348,Celestún,20.87,-90.4,85.96,70,64,11.56,MX,1600109844
349,Sola,-13.88,167.55,80.6,78,40,11.41,VU,1600109845
350,Manerbio,45.36,10.14,78.8,47,5,2.24,IT,1600109845
351,Aksarka,66.56,67.8,49.93,92,100,16.67,RU,1600109845
352,Manzhouli,49.6,117.43,45.32,63,5,5.82,CN,1600109846
353,Ayr,55.46,-4.63,62.6,88,20,2.26,GB,1600109846
354,Cidreira,-30.18,-50.21,59.32,56,100,17.22,BR,1600109846
355,Plettenberg Bay,-34.05,23.37,54.59,71,47,10.8,ZA,1600109841
356,Emba,48.83,58.14,64.35,34,100,7.16,KZ,1600109847
357,Bereda,43.27,-7.54,66.99,1,37,2.48,ES,1600109847
358,Darhan,49.49,105.92,42.12,90,100,5.19,MN,1600109847
359,Mana,5.66,-53.78,85.5,63,10,9.37,GF,1600109840
360,Tokmak,47.25,35.71,67.46,40,0,9.82,UA,1600109847
361,Bahía Blanca,-38.72,-62.27,64.29,29,0,16.73,AR,1600109849
362,Alugan,12.22,125.48,80.55,82,95,4.0,PH,1600109849
363,Trelew,-43.25,-65.31,71.35,23,2,22.03,AR,1600109834
364,Iroquois Falls,48.77,-80.68,51.8,53,75,10.29,CA,1600109850
365,Kushima,31.46,131.23,71.01,88,100,1.03,JP,1600109850
366,Narsaq,60.92,-46.05,44.6,36,75,3.36,GL,1600109850
367,Upernavik,72.79,-56.15,30.09,83,0,5.79,GL,1600109850
368,Muzhi,65.37,64.67,49.84,94,100,11.45,RU,1600109851
369,Mayskiy,47.69,40.1,68.0,37,0,6.71,RU,1600109851
370,Puerto del Rosario,28.5,-13.86,75.2,78,20,12.75,ES,1600109851
371,Tefé,-3.35,-64.71,95.0,50,40,5.82,BR,1600109851
372,Toora-Khem,52.47,96.11,35.74,89,0,0.87,RU,1600109852
373,Longyearbyen,78.22,15.64,35.6,95,75,6.93,SJ,1600109608
374,Mendeleyevsk,55.91,52.29,50.0,81,20,13.42,RU,1600109852
375,Padang,-0.95,100.35,78.24,74,100,4.03,ID,1600109852
376,Peniche,39.36,-9.38,73.0,85,0,15.99,PT,1600109853
377,Salym,60.06,71.48,51.91,93,98,5.08,RU,1600109853
378,Leh,34.17,77.58,55.24,36,0,5.91,IN,1600109853
379,São Sebastião,-23.76,-45.41,87.78,37,0,2.35,BR,1600109854
380,Karratha,-20.74,116.85,75.22,44,0,8.7,AU,1600109854
381,Raudeberg,61.99,5.14,51.01,95,100,4.5,NO,1600109854
382,Iqaluit,63.75,-68.51,39.2,69,90,12.75,CA,1600109631
383,Taoudenni,22.68,-3.98,106.27,9,5,2.01,ML,1600109855
384,Afyonkarahisar,38.75,30.67,68.32,60,0,5.28,TR,1600109855
385,Saint-Joseph,-21.37,55.62,66.2,55,36,26.4,RE,1600109855
386,Oranjemund,-28.55,16.43,56.57,77,0,15.35,NA,1600109856
387,Saltillo,25.42,-101.0,69.01,68,90,9.26,MX,1600109692
388,Salamiyah,35.01,37.05,73.36,53,0,6.78,SY,1600109856
389,San Cristobal,7.77,-72.22,95.0,44,40,11.41,VE,1600109856
390,Labuhan,-6.88,112.21,76.5,79,0,8.86,ID,1600109830
391,Katsuura,35.13,140.3,73.0,85,34,1.99,JP,1600109825
392,Mount Isa,-20.73,139.5,66.2,32,0,1.12,AU,1600109857
393,Jacareacanga,-6.22,-57.75,95.0,47,96,3.36,BR,1600109857
394,Cachoeira do Sul,-30.04,-52.89,63.61,56,100,5.37,BR,1600109858
395,Norton,-17.88,30.7,69.8,40,1,4.7,ZW,1600109858
396,Mezen',65.85,44.24,48.27,94,99,8.32,RU,1600109858
397,Mossamedes,-15.2,12.15,65.46,84,100,6.87,AO,1600109650
398,Meulaboh,4.14,96.13,77.54,86,99,3.38,ID,1600109859
399,Hualmay,-11.1,-77.61,66.09,69,24,10.11,PE,1600109859
400,Yinchuan,38.47,106.27,61.12,61,0,8.59,CN,1600109859
401,Horqueta,-23.34,-57.06,87.46,43,29,10.94,PY,1600109860
402,Ferme-Neuve,46.7,-75.45,54.43,47,25,9.24,CA,1600109860
403,Moose Factory,51.26,-80.61,51.8,57,75,10.29,CA,1600109860
404,Rāvar,31.27,56.81,67.62,23,0,9.71,IR,1600109860
405,Dunedin,-45.87,170.5,48.99,63,27,5.01,NZ,1600109861
406,Cap Malheureux,-19.98,57.61,68.0,53,0,10.0,MU,1600109863
407,Goma,-1.68,29.22,69.06,58,39,2.64,CD,1600109863
408,Drumheller,51.46,-112.71,55.99,51,100,8.48,CA,1600109864
409,Nishihara,26.18,127.76,80.6,78,75,4.7,JP,1600109855
410,Poum,-20.23,164.02,72.16,78,1,13.91,NC,1600109864
411,Biak,-0.91,122.88,75.72,80,100,8.68,ID,1600109864
412,Huarmey,-10.07,-78.15,67.68,66,7,10.76,PE,1600109864
413,Thinadhoo,0.53,72.93,82.81,69,99,5.97,MV,1600109865
414,Kiunga,-6.12,141.29,69.62,98,94,1.79,PG,1600109865
415,Jining,35.41,116.58,65.93,92,96,5.03,CN,1600109865
416,Ossora,59.24,163.07,44.55,82,100,11.81,RU,1600109576
417,Zandvoort,52.37,4.53,72.0,77,50,6.93,NL,1600109866
418,Jalingo,8.88,11.37,74.19,90,100,3.44,NG,1600109864
419,Laguna,38.42,-121.42,75.0,60,90,8.05,US,1600109850
420,Trairi,-3.28,-39.27,82.53,58,100,16.6,BR,1600109866
421,Alyangula,-13.85,136.42,68.0,94,75,9.84,AU,1600109867
422,Nova Olímpia,-14.8,-57.29,104.92,10,0,9.53,BR,1600109867
423,Sørland,67.67,12.69,50.0,87,75,8.05,NO,1600109867
424,Henties Bay,-22.12,14.28,55.99,79,0,5.01,NA,1600109867
425,San Policarpo,12.18,125.51,80.56,82,88,3.0,PH,1600109868
426,Dongzhen,22.38,110.94,76.51,88,68,0.78,CN,1600109868
427,Sur,22.57,59.53,80.56,69,100,9.78,OM,1600109869
428,Ritchie,-29.04,24.6,55.4,28,0,5.82,ZA,1600109869
429,Kruisfontein,-34.0,24.73,55.0,60,0,5.01,ZA,1600109860
430,Srednekolymsk,67.45,153.68,38.53,87,0,6.55,RU,1600109869
431,San Andrés,12.58,-81.7,86.0,79,75,3.36,CO,1600109575
432,Andros Town,24.7,-77.77,87.8,70,40,10.29,BS,1600109870
433,Sidhi,24.42,81.88,81.27,71,14,1.77,IN,1600109870
434,Souillac,-20.52,57.52,68.0,52,40,16.11,MU,1600109829
435,Iquique,-20.22,-70.14,64.4,63,94,13.87,CL,1600109871
436,Yangi Marg`ilon,40.43,71.72,69.8,52,0,4.7,UZ,1600109871
437,Mokhsogollokh,61.47,128.92,40.78,91,22,5.06,RU,1600109871
438,Temerloh,3.45,102.42,73.38,98,100,2.06,MY,1600109873
439,Maseru,-29.32,27.48,56.14,36,0,8.19,LS,1600109874
440,Barcelos,41.54,-8.62,70.0,77,6,3.36,PT,1600109874
441,Ambilobe,-13.2,49.05,71.24,64,9,5.82,MG,1600109874
442,Saint-Augustin,51.23,-58.65,65.07,54,21,23.85,CA,1600109875
443,Nemuro,43.32,145.57,59.34,67,39,8.68,JP,1600109875
444,Flagstaff,35.2,-111.65,77.0,20,1,4.21,US,1600109875
445,Obigarm,38.72,69.71,54.97,39,0,1.34,TJ,1600109875
446,Remanso,-9.62,-42.08,86.45,38,77,15.46,BR,1600109876
447,Hirara,24.8,125.28,82.87,71,95,7.54,JP,1600109876
448,Adrar,20.5,-10.07,104.52,10,76,6.29,MR,1600109876
449,Chicama,-7.84,-79.15,72.43,57,39,10.8,PE,1600109833
450,Porto Santo,33.07,-16.34,75.2,69,20,6.93,PT,1600109877
451,Abnūb,27.27,31.15,86.0,37,0,10.29,EG,1600109877
452,Songea,-10.68,35.65,75.2,47,5,6.93,TZ,1600109877
453,Chamba,32.57,76.13,69.17,57,59,5.39,IN,1600109646
454,Kampot,10.62,104.18,78.8,83,40,1.12,KH,1600109878
455,Gizo Government Station,-8.1,156.84,81.55,77,100,7.74,SB,1600109878
456,Tambovka,50.1,128.05,50.0,100,40,2.77,RU,1600109878
457,Raja,8.46,25.68,71.15,94,100,2.39,SS,1600109879
458,Bolu Province,40.67,31.58,64.2,86,45,2.42,TR,1600109879
459,Yerbogachën,61.28,108.01,43.95,87,2,4.92,RU,1600109879
460,Tambura,5.6,27.47,70.32,90,10,1.39,SS,1600109879
461,Kembé,4.62,21.89,71.1,96,10,2.59,CF,1600109880
462,Sangolquí,-0.33,-78.45,73.4,27,40,13.87,EC,1600109880
463,Isla Mujeres,21.23,-86.73,87.8,70,75,13.87,MX,1600109880
464,Grand Forks,47.93,-97.03,66.0,48,20,14.99,US,1600109700
465,Nome,64.5,-165.41,50.0,93,90,20.8,US,1600109832
466,Nueva Granada,9.8,-74.39,87.26,70,100,2.55,CO,1600109881
467,High Level,58.52,-117.14,44.6,70,20,6.93,CA,1600109840
468,Madison Heights,42.49,-83.11,66.99,52,40,6.93,US,1600109881
469,Cochrane,51.18,-114.47,48.2,76,90,5.82,CA,1600109882
470,‘Ewa Beach,21.32,-158.01,78.8,65,1,4.7,US,1600109843
471,Albertville,34.27,-86.21,88.0,58,75,5.82,US,1600109883
472,Mareeba,-17.0,145.43,68.0,88,90,12.75,AU,1600109883
473,Qurayyat,31.33,37.34,89.6,21,0,18.34,SA,1600109883
474,Huangnihe,43.56,128.02,46.51,93,0,0.69,CN,1600109884
475,Kulhudhuffushi,6.62,73.07,81.81,79,100,11.7,MV,1600109884
476,Igarka,67.47,86.58,50.13,97,100,7.38,RU,1600109884
477,Shakawe,-18.37,21.85,68.56,23,0,1.28,BW,1600109884
478,Sistranda,63.73,8.83,50.0,76,75,3.36,NO,1600109885
479,Kumul,42.8,93.45,64.11,24,0,6.62,CN,1600109831
480,Manor,19.75,72.92,77.94,87,100,3.58,IN,1600109885
481,Sittwe,20.15,92.9,82.26,84,100,7.92,MM,1600109885
482,Altay,47.87,88.12,49.64,47,53,1.95,CN,1600109886
483,Nakło nad Notecią,53.14,17.6,66.0,88,100,2.24,PL,1600109886
484,Safaga,26.73,33.94,91.4,36,0,14.99,EG,1600109887
485,Wanaka,-44.7,169.15,39.31,79,100,7.74,NZ,1600109887
486,Nkhotakota,-12.93,34.3,74.89,65,0,0.67,MW,1600109887
487,Torbay,47.67,-52.73,66.99,100,90,19.46,CA,1600109823
488,Kigoma,-4.88,29.63,77.0,73,5,4.09,TZ,1600109888
489,Assiut,27.18,31.18,86.0,37,0,10.29,EG,1600109815
490,Podgornoye,51.73,39.15,64.4,52,75,20.13,RU,1600109888
491,Mahanoro,-19.9,48.8,66.36,80,70,1.16,MG,1600109888
492,Qaqortoq,60.72,-46.03,44.6,36,75,3.36,GL,1600109754
493,Jasper,37.2,-94.35,79.0,57,1,5.82,US,1600109889
494,Caramay,10.18,119.24,79.99,81,100,4.76,PH,1600109889
495,Moroni,-11.7,43.26,75.63,77,13,0.63,KM,1600109889
496,Kyren,51.68,102.14,42.31,81,100,1.23,RU,1600109890
497,Zeya,53.75,127.27,58.5,85,100,2.44,RU,1600109890
498,Todos Santos,23.45,-110.22,86.0,77,11,4.0,MX,1600109890
499,Itaituba,-4.28,-55.98,96.8,47,20,4.36,BR,1600109890
500,Kathmandu,27.72,85.32,69.8,94,40,4.7,NP,1600109693
501,Chapais,49.78,-74.85,48.2,61,90,14.99,CA,1600109891
502,Mayo,38.89,-76.51,78.01,57,20,8.05,US,1600109890
503,Gallup,35.53,-108.74,75.99,20,1,5.82,US,1600109891
504,Macas,-2.32,-78.12,69.8,83,75,4.7,EC,1600109892
505,São João da Barra,-21.64,-41.05,82.4,58,0,23.04,BR,1600109836
506,Hengyang,26.89,112.61,69.82,90,100,3.58,CN,1600109893
507,Araouane,18.9,-3.53,105.94,11,60,8.46,ML,1600109893
508,Tchaourou,8.89,2.6,74.61,87,4,1.63,BJ,1600109894
509,Kuito,-12.38,16.93,69.62,27,73,3.98,AO,1600109894
510,Dryden,49.78,-92.75,53.6,58,1,9.17,CA,1600109727
511,Port Hardy,50.7,-127.42,59.0,87,90,9.17,CA,1600109798
512,Evensk,61.95,159.23,40.48,70,17,7.45,RU,1600109852
513,Eirunepé,-6.66,-69.87,91.99,47,100,1.39,BR,1600109895
514,Ilhéus,-14.79,-39.05,77.0,83,40,10.29,BR,1600109895
515,Kibre Mengist,5.88,38.98,58.78,89,21,2.44,ET,1600109895
516,Moree,-29.47,149.85,55.4,66,75,9.17,AU,1600109896
517,Benguela,-12.58,13.41,71.24,79,92,5.75,AO,1600109896
518,Biltine,14.53,20.92,85.48,57,0,6.55,TD,1600109896
519,Grand Gaube,-20.01,57.66,68.0,53,3,10.0,MU,1600109705
520,San Jerónimo,-11.95,-75.28,60.98,41,92,6.24,PE,1600109897
521,Velsk,61.07,42.1,46.94,89,86,9.15,RU,1600109897
522,Egvekinot,66.32,-179.17,40.1,93,100,9.71,RU,1600109898
523,Bilāsipāra,26.23,90.23,78.28,87,100,1.9,IN,1600109898
524,Orlik,52.52,99.83,36.57,83,100,2.8,RU,1600109898
525,Philadelphia,39.95,-75.16,79.0,44,75,14.99,US,1600109654
526,Durrës,41.32,19.44,78.8,57,40,2.24,AL,1600109899
527,Mazyr,52.05,29.25,61.09,85,15,6.02,BY,1600109899
528,Port Macquarie,-31.43,152.92,54.0,100,20,5.37,AU,1600109899
529,Barreirinhas,-2.75,-42.83,86.2,50,100,11.59,BR,1600109900
530,Playas,-2.63,-80.38,74.8,74,18,15.37,EC,1600109900
531,Baruun-Urt,46.68,113.28,47.14,50,4,8.28,MN,1600109900
532,Tianpeng,30.99,103.94,69.8,100,40,2.3,CN,1600109900
533,Kushiro,42.98,144.37,51.48,84,55,5.03,JP,1600109901
534,Tūkrah,32.53,20.58,81.9,57,0,18.48,LY,1600109901
535,Palu,-0.89,119.87,75.65,81,100,2.75,ID,1600109901
536,Abomsa,9.98,39.98,73.36,53,0,6.46,ET,1600109901
537,Urusha,54.05,122.9,48.87,95,86,3.76,RU,1600109902
538,Batagay,67.63,134.63,40.77,95,49,2.84,RU,1600109902
539,Roald,62.58,6.13,50.0,93,75,6.93,NO,1600109863
540,Kosa,59.94,55.0,45.79,94,100,5.7,RU,1600109903
541,Antanifotsy,-19.65,47.32,53.31,81,92,5.03,MG,1600109903
542,San Jose,37.34,-121.89,70.0,54,0,4.0,US,1600109847
543,Yudong,29.39,106.52,70.0,100,40,6.71,CN,1600109904
544,Soller,39.77,2.72,78.01,78,98,2.24,ES,1600109905
545,Nuuk,64.18,-51.72,42.8,35,75,14.99,GL,1600109905
546,Port Keats,-14.25,129.55,74.26,87,1,4.23,AU,1600109905
547,Mugur-Aksy,50.35,90.5,36.59,74,58,0.83,RU,1600109906
548,Olinda,-8.01,-34.86,82.4,65,40,12.75,BR,1600109907
549,Belmonte,-15.86,-38.88,77.0,65,75,10.29,BR,1600109907
550,Marsá Maţrūḩ,31.35,27.25,78.8,65,5,6.93,EG,1600109907
551,Belaya Gora,68.53,146.42,41.04,83,46,8.3,RU,1600109908
552,Coahuayana Viejo,18.73,-103.68,80.6,74,40,6.02,MX,1600109908
553,Namwala,-15.75,26.44,71.58,31,15,3.4,ZM,1600109908
554,Maniitsoq,65.42,-52.9,39.29,65,88,7.25,GL,1600109909
555,Minnedosa,50.25,-99.84,57.2,54,90,13.87,CA,1600109909
556,Havre-St-Pierre,50.23,-63.6,53.6,71,1,27.51,CA,1600109884
557,Chizhou,30.66,117.48,69.33,92,100,3.98,CN,1600109909
558,Lékoni,-1.58,14.26,77.36,73,100,6.87,GA,1600109910
559,Mildura,-34.2,142.15,44.6,87,0,5.82,AU,1600109910
560,Yarmouth,41.71,-70.23,73.4,49,1,17.22,US,1600109910
561,Umm Kaddadah,13.6,26.69,90.57,37,91,8.1,SD,1600109910
562,Atar,20.52,-13.05,106.0,13,84,7.36,MR,1600109911
563,Tevaitoa,-16.78,-151.5,79.25,72,6,10.71,PF,1600109911
564,Pundaguitan,6.37,126.17,82.29,79,100,14.72,PH,1600109911
565,Ampanihy,-24.7,44.75,76.14,49,51,2.8,MG,1600109912
566,Bawku,11.06,-0.24,79.25,78,6,1.43,GH,1600109912
567,Ýpsonas,34.69,32.96,80.6,78,0,14.99,CY,1600109912
568,Zhalantun,48.0,122.72,49.17,85,100,4.9,CN,1600109912
569,Hailey,43.52,-114.32,75.99,18,5,3.36,US,1600109911
