City_ID,City,Lat,Lng,Max Temp,Humidity,Cloudiness,Wind Speed,Country,Date
0,Qaanaaq,77.48,-69.36,21.18,84,52,9.28,GL,1600368313
1,Jacqueville,5.21,-4.41,78.8,83,20,8.05,CI,1600368673
2,Ushuaia,-54.8,-68.3,37.4,59,40,26.4,AR,1600368256
3,Rikitea,-23.12,-134.97,71.85,82,99,23.6,PF,1600368267
4,Mataura,-46.19,168.86,39.0,79,86,11.01,NZ,1600368262
5,Butaritari,3.07,172.79,81.54,79,90,16.04,KI,1600368256
6,Road Town,18.42,-64.62,89.6,66,20,11.41,VG,1600368490
7,Chokurdakh,70.63,147.92,42.08,96,100,9.91,RU,1600368282
8,Srednekolymsk,67.45,153.68,35.33,88,100,6.06,RU,1600368278
9,Horsham,51.06,-0.33,59.0,67,0,13.87,GB,1600368674
10,East London,-33.02,27.91,55.4,82,3,3.36,ZA,1600368083
11,Punta Arenas,-53.15,-70.92,42.8,48,75,28.86,CL,1600368021
12,Leningradskiy,69.38,178.42,33.42,94,100,16.53,RU,1600368260
13,Noumea,-22.28,166.46,60.8,87,2,5.61,NC,1600368305
14,Port Elizabeth,-33.92,25.57,53.6,93,0,2.24,ZA,1600368291
15,Gopālpur,19.27,84.92,82.69,84,98,10.04,IN,1600368675
16,Conceição do Mato Dentro,-19.04,-43.42,86.7,28,4,6.67,BR,1600368675
17,Tiksi,71.69,128.87,46.8,79,100,14.76,RU,1600368251
18,Codrington,-38.27,141.97,46.44,88,100,8.93,AU,1600368289
19,Abalak,58.13,68.59,49.21,96,100,7.27,RU,1600368356
20,Tuatapere,-46.13,167.68,39.0,79,99,11.01,NZ,1600368355
21,Yulara,-25.24,130.99,59.0,77,40,11.41,AU,1600368392
22,Coyhaique,-45.58,-72.07,44.6,73,75,6.93,CL,1600368250
23,Busselton,-33.65,115.33,48.99,51,0,13.11,AU,1600368249
24,Jamestown,42.1,-79.24,68.0,68,20,9.17,US,1600368284
25,Kavieng,-2.57,150.8,82.22,77,100,11.03,PG,1600368286
26,Honningsvåg,70.98,25.97,46.4,75,20,10.29,NO,1600368677
27,La Ronge,55.1,-105.28,51.8,50,20,8.05,CA,1600368252
28,Cape Town,-33.93,18.42,57.99,87,28,6.93,ZA,1600368252
29,Hudiksvall,61.73,17.1,43.0,85,100,5.41,SE,1600368677
30,Touros,-5.2,-35.46,82.4,54,40,14.99,BR,1600368324
31,Tolaga Bay,-38.37,178.3,55.99,64,100,9.84,NZ,1600368548
32,Mandurah,-32.55,115.7,52.0,69,0,15.88,AU,1600368678
33,Khatanga,71.97,102.5,46.72,81,0,6.98,RU,1600368322
34,Hilo,19.73,-155.09,75.99,73,90,4.7,US,1600368147
35,Cayenne,4.93,-52.33,87.8,66,0,12.75,GF,1600368377
36,Houston,29.76,-95.36,88.0,58,90,8.05,US,1600368235
37,Ust-Nera,64.57,143.2,33.15,88,0,1.86,RU,1600368383
38,Aki,33.5,133.9,78.1,89,76,8.08,JP,1600368679
39,Cherskiy,68.75,161.3,35.11,95,100,6.87,RU,1600368280
40,Faya,18.39,42.45,75.2,68,10,8.16,SA,1600368251
41,Hobart,-42.88,147.33,37.4,85,0,6.93,AU,1600368258
42,Bluff,-46.6,168.33,39.0,79,100,11.01,NZ,1600368273
43,Upernavik,72.79,-56.15,34.84,84,100,4.63,GL,1600368299
44,Shelburne,44.08,-80.2,60.8,55,75,10.29,CA,1600368077
45,Saint George,37.1,-113.58,89.01,14,1,3.36,US,1600368353
46,Mar del Plata,-38.0,-57.56,75.2,27,0,19.46,AR,1600368314
47,Verkhniye Kigi,55.41,58.6,43.84,90,95,8.1,RU,1600368680
48,Ayan,56.45,138.17,51.78,71,100,18.12,RU,1600368319
49,Richards Bay,-28.78,32.04,66.79,70,70,4.74,ZA,1600368260
50,Nioro,13.35,-15.75,79.92,84,35,9.8,GM,1600368526
51,Yellowknife,62.46,-114.35,48.99,57,75,14.99,CA,1600368185
52,Nemuro,43.32,145.57,67.8,96,100,9.19,JP,1600368409
53,Faanui,-16.48,-151.75,77.95,77,6,15.3,PF,1600368317
54,Hualmay,-11.1,-77.61,67.03,64,6,8.23,PE,1600368337
55,Hasaki,35.73,140.83,80.01,94,75,8.05,JP,1600368147
56,Ambilobe,-13.2,49.05,71.6,72,27,5.19,MG,1600368444
57,Narsaq,60.92,-46.05,46.4,52,75,2.24,GL,1600368315
58,Osoyoos,49.03,-119.45,71.6,64,5,9.17,CA,1600368682
59,Kaitangata,-46.28,169.85,39.0,65,29,7.0,NZ,1600368258
60,Pucallpa,-8.38,-74.55,95.22,38,79,3.02,PE,1600368682
61,Hong Kong,22.29,114.16,82.99,89,100,22.17,HK,1600368081
62,Comodoro Rivadavia,-45.87,-67.5,59.0,19,40,27.51,AR,1600368391
63,Muisne,0.6,-80.03,76.01,82,69,13.33,EC,1600368502
64,Vaini,-21.2,-175.2,68.0,94,75,12.75,TO,1600368250
65,Tuktoyaktuk,69.45,-133.04,42.8,93,75,6.93,CA,1600368315
66,Alcaudete,37.59,-4.08,82.99,46,100,11.01,ES,1600368683
67,Howard Springs,-12.5,131.05,78.8,83,40,2.51,AU,1600368683
68,Almeria,37.17,-2.33,82.0,74,89,2.24,ES,1600368683
69,Puerto Ayora,-0.74,-90.35,77.0,61,20,17.22,EC,1600368213
70,Port Alfred,-33.59,26.89,59.4,70,11,4.56,ZA,1600368254
71,Taltal,-25.4,-70.48,65.46,46,22,6.6,CL,1600368348
72,Haines Junction,60.75,-137.51,52.77,43,100,5.93,CA,1600368345
73,Pierre,44.37,-100.35,71.01,48,1,10.29,US,1600368684
74,Buchanan,5.88,-10.05,82.4,78,75,5.82,LR,1600368684
75,Vytegra,61.01,36.45,50.77,93,100,9.08,RU,1600368684
76,Nikolskoye,59.7,30.79,50.0,81,75,13.42,RU,1600368265
77,Kiryat Gat,31.61,34.76,82.99,76,0,4.76,IL,1600368342
78,Erenhot,43.65,111.98,54.23,42,0,4.9,CN,1600368573
79,Atuona,-9.8,-139.03,77.63,77,47,21.27,PF,1600368255
80,Belaya Gora,68.53,146.42,44.42,80,100,11.45,RU,1600368436
81,Castro,-24.79,-50.01,72.0,55,100,8.84,BR,1600368059
82,Hithadhoo,-0.6,73.08,82.62,78,71,11.18,MV,1600368296
83,Fortuna,40.6,-124.16,72.0,88,1,5.82,US,1600368354
84,Tautira,-17.73,-149.15,80.6,74,20,3.36,PF,1600368301
85,Thompson,55.74,-97.86,42.8,45,20,6.93,CA,1600368268
86,Albany,42.6,-73.97,72.0,64,100,3.62,US,1600368069
87,Moreno Valley,33.94,-117.23,93.0,8,1,3.89,US,1600368655
88,Mitsamiouli,-11.38,43.28,76.75,78,0,10.36,KM,1600368335
89,Barrow,71.29,-156.79,39.2,93,40,5.82,US,1600368083
90,Ribeira Grande,38.52,-28.7,71.6,68,20,6.93,PT,1600368253
91,Tasiilaq,65.61,-37.64,41.0,65,5,11.41,GL,1600368299
92,Ahipara,-35.17,173.17,57.43,83,88,12.21,NZ,1600368266
93,Tevaitoa,-16.78,-151.5,79.36,76,11,20.47,PF,1600368687
94,Carnarvon,-24.87,113.63,57.2,62,0,8.05,AU,1600368329
95,Torbay,47.67,-52.73,66.2,68,75,31.09,CA,1600368323
96,Sos'va,59.18,61.86,44.44,78,96,8.16,RU,1600368687
97,Mahébourg,-20.41,57.7,71.6,73,75,11.41,MU,1600368298
98,Tagāb,34.85,69.65,73.4,17,75,23.04,AF,1600368687
99,Grand Gaube,-20.01,57.66,71.01,70,0,3.0,MU,1600368429
100,Amga,60.9,131.96,35.2,87,0,2.33,RU,1600368688
101,Caravelas,-17.71,-39.25,78.19,57,0,8.81,BR,1600368283
102,Chui,-33.7,-53.46,67.73,58,0,7.45,UY,1600368310
103,Altay,47.87,88.12,57.63,37,1,1.34,CN,1600368581
104,Klyuchi,52.27,79.17,56.53,48,94,18.54,RU,1600368449
105,Tulagi,-9.1,160.15,75.2,94,75,5.82,SB,1600368689
106,Kapaa,22.08,-159.32,82.4,69,20,11.41,US,1600368254
107,Quelimane,-17.88,36.89,74.26,84,0,9.01,MZ,1600368427
108,Gemeente Vught,51.65,5.28,61.0,47,98,3.0,NL,1600368689
109,Yeppoon,-23.13,150.73,62.6,93,6,6.93,AU,1600368381
110,Plettenberg Bay,-34.05,23.37,55.67,73,0,4.99,ZA,1600368364
111,Kalmunai,7.42,81.82,81.77,69,100,7.49,LK,1600368416
112,Kruisfontein,-34.0,24.73,54.0,78,0,3.62,ZA,1600368275
113,Pahrump,36.21,-115.98,98.01,11,55,1.99,US,1600368354
114,Avarua,-21.21,-159.78,71.6,68,99,8.05,CK,1600368262
115,Mafra,-26.11,-49.81,63.23,91,100,6.04,BR,1600368412
116,Naliya,23.27,68.83,83.53,84,100,12.86,IN,1600368690
117,Cabedelo,-6.98,-34.83,82.4,58,20,16.11,BR,1600368176
118,Bikaner,28.02,73.3,94.64,39,0,7.92,IN,1600368685
119,Bud,39.45,-86.18,80.01,50,1,9.17,US,1600368367
120,Mishkino,55.34,63.92,49.21,85,100,12.39,RU,1600368691
121,Lagoa,39.05,-27.98,68.49,71,93,12.95,PT,1600368469
122,Avera,33.19,-82.53,77.0,100,90,11.41,US,1600368346
123,Utete,-7.99,38.76,71.96,86,0,6.8,TZ,1600368691
124,Zaliznychne,45.75,28.61,70.07,48,0,2.1,UA,1600368692
125,Bull Savanna,17.89,-77.59,83.91,71,2,12.84,JM,1600368692
126,Makakilo City,21.35,-158.09,80.6,65,1,5.82,US,1600368090
127,Poum,-20.23,164.02,71.42,77,0,9.89,NC,1600368272
128,Klaksvík,62.23,-6.59,51.8,100,100,8.05,FO,1600368318
129,Lebu,-37.62,-73.65,53.89,77,100,11.79,CL,1600368264
130,Talnakh,69.49,88.4,51.8,71,100,8.95,RU,1600368268
131,Sinnamary,5.38,-52.95,84.52,72,14,13.27,GF,1600368308
132,Westport,41.14,-73.36,75.0,56,90,8.05,US,1600368460
133,Acapulco de Juárez,16.86,-99.89,86.0,79,90,5.82,MX,1600368105
134,Pevek,69.7,170.31,33.89,94,100,9.75,RU,1600368269
135,Port Lincoln,-34.73,135.87,59.85,81,97,20.67,AU,1600368341
136,Randolph,35.7,-79.82,68.0,100,90,8.05,US,1600368445
137,Saskylakh,71.92,114.08,47.12,81,0,9.08,RU,1600368270
138,Fos-sur-Mer,43.44,4.94,75.2,78,9,9.17,FR,1600368694
139,Dingle,11.0,122.67,75.0,92,100,2.73,PH,1600368291
140,Namatanai,-3.67,152.43,79.63,79,100,2.13,PG,1600368264
141,Makīnsk,52.63,70.42,46.8,87,100,16.26,KZ,1600368694
142,Cockburn Town,21.46,-71.14,87.8,66,40,9.17,TC,1600368278
143,New Norfolk,-42.78,147.06,35.01,73,0,2.37,AU,1600368258
144,Bredasdorp,-34.53,20.04,53.6,81,32,1.12,ZA,1600368254
145,Margate,51.38,1.39,63.0,66,0,1.99,GB,1600368100
146,Constitución,-35.33,-72.42,62.19,65,0,17.4,CL,1600368292
147,Bethel,41.37,-73.41,73.99,53,1,6.93,US,1600368271
148,Cabo San Lucas,22.89,-109.91,93.2,70,20,6.93,MX,1600368205
149,Bengkulu,-3.8,102.27,74.44,90,85,4.9,ID,1600368252
150,Zeya,53.75,127.27,49.23,87,100,5.7,RU,1600368303
151,Los Llanos de Aridane,28.66,-17.92,75.2,69,20,12.75,ES,1600368346
152,Kawalu,-7.38,108.21,69.71,91,100,0.6,ID,1600368446
153,Ancud,-41.87,-73.82,54.0,67,100,4.0,CL,1600368349
154,Arraial do Cabo,-22.97,-42.03,86.0,58,0,14.99,BR,1600368263
155,Norman Wells,65.28,-126.83,48.2,70,40,6.93,CA,1600368350
156,Hollister,36.85,-121.4,79.0,68,1,4.05,US,1600368696
157,Salym,60.06,71.48,46.0,95,100,3.94,RU,1600368696
158,Inhambane,-23.86,35.38,73.4,94,20,2.24,MZ,1600368418
159,Solnechnyy,50.72,136.63,48.52,92,96,7.67,RU,1600368502
160,Goderich,43.75,-81.72,68.0,66,1,18.16,CA,1600368591
161,Hermanus,-34.42,19.23,50.0,89,7,2.24,ZA,1600368056
162,Los Algarrobos,8.5,-82.43,82.4,83,40,11.41,PA,1600368697
163,Muş Province,39.0,41.75,64.54,25,0,2.3,TR,1600368697
164,Dikson,73.51,80.55,46.47,81,100,11.23,RU,1600368270
165,Ushibukamachi,32.19,130.02,79.25,89,100,17.54,JP,1600368698
166,Māngrol,21.12,70.12,81.45,81,100,9.4,IN,1600368698
167,Haapiti,-17.57,-149.87,82.4,69,20,3.36,PF,1600368698
168,Bajil,15.06,43.29,91.24,58,8,3.87,YE,1600368699
169,Sitka,57.05,-135.33,53.6,76,20,4.7,US,1600368297
170,Lorengau,-2.02,147.27,81.48,79,80,8.72,PG,1600368292
171,Praia,14.92,-23.51,82.09,77,11,6.17,CV,1600368699
172,Souillac,-20.52,57.52,71.6,73,75,11.41,MU,1600368284
173,Arrondissement de Rennes,48.17,-1.67,77.0,50,0,16.11,FR,1600368700
174,Maamba,-17.37,27.15,79.99,26,62,3.36,ZM,1600368700
175,Padang,-0.95,100.35,77.05,77,100,3.36,ID,1600368377
176,Lewistown,40.6,-77.57,73.99,53,1,1.83,US,1600368700
177,Boddam,57.47,-1.78,55.4,82,0,8.05,GB,1600368700
178,Port Macquarie,-31.43,152.92,57.99,91,29,12.55,AU,1600368390
179,Egvekinot,66.32,-179.17,36.82,82,100,14.65,RU,1600368309
180,Konongo,6.62,-1.22,72.66,95,1,2.89,GH,1600368701
181,Reinosa,43.0,-4.14,79.0,64,100,1.63,ES,1600368701
182,Vardø,70.37,31.11,42.8,75,100,16.11,NO,1600368308
183,Superior,46.72,-92.1,57.2,33,1,5.82,US,1600368702
184,Barra do Bugres,-15.07,-57.18,100.74,16,99,1.23,BR,1600368702
185,Muros,42.78,-9.06,64.0,94,84,4.72,ES,1600368414
186,Aklavik,68.22,-135.01,42.8,87,40,4.7,CA,1600368132
187,Sol'-Iletsk,51.16,54.99,46.99,77,68,5.73,RU,1600368702
188,Gerāsh,27.67,54.14,82.4,17,0,7.09,IR,1600368703
189,Lüderitz,-26.65,15.16,59.76,68,0,12.62,NA,1600368362
190,Bom Jesus do Galho,-19.83,-42.32,86.0,32,0,2.19,BR,1600368703
191,Wanning,18.8,110.4,82.35,88,100,16.02,CN,1600368261
192,Qarayeri,40.79,46.31,69.8,68,75,4.7,AZ,1600368703
193,Bintulu,3.17,113.03,77.0,94,40,2.57,MY,1600368704
194,Philadelphia,39.95,-75.16,77.0,73,90,5.82,US,1600368628
195,Severo-Kuril'sk,50.68,156.12,54.03,85,100,8.84,RU,1600368255
196,Nushki,29.55,66.02,66.49,23,0,0.89,PK,1600368704
197,Saldanha,-33.01,17.94,57.2,76,0,8.05,ZA,1600368267
198,Obodivka,48.41,29.25,66.0,70,100,1.01,UA,1600368705
199,Sinjār,36.32,41.88,85.44,21,0,8.05,IQ,1600368705
200,Casselman,45.32,-75.08,59.0,62,0,4.0,CA,1600368705
201,Coronel,-37.02,-73.13,59.0,82,40,10.29,CL,1600368705
202,Nizāmābād,18.67,78.12,77.23,88,100,3.87,IN,1600368706
203,Simao,22.79,100.97,66.6,96,100,2.3,CN,1600368706
204,Berlevåg,70.86,29.09,44.6,70,100,10.29,NO,1600368512
205,Lenine,45.3,35.78,69.19,60,0,4.9,UA,1600368706
206,Pacific Grove,36.62,-121.92,63.0,82,20,3.36,US,1600368319
207,Pangnirtung,66.15,-65.71,41.0,60,90,11.41,CA,1600368271
208,Praia da Vitória,38.73,-27.07,71.6,83,40,7.36,PT,1600368683
209,Arrondissement de Bastia,42.67,9.33,80.01,73,0,2.24,FR,1600368707
210,Mossamedes,-15.2,12.15,62.13,79,0,6.22,AO,1600368327
211,Port Hardy,50.7,-127.42,64.4,88,90,3.36,CA,1600368270
212,Aykhal,66.0,111.5,48.2,61,0,4.47,RU,1600368381
213,Broken Hill,-31.95,141.43,68.0,52,75,16.11,AU,1600368263
214,Oodweyne,9.41,45.06,82.6,43,59,0.16,SO,1600368408
215,Marataizes,-21.04,-40.82,77.49,69,0,21.05,BR,1600368666
216,Oranjestad,12.52,-70.03,91.4,55,20,16.11,AW,1600368625
217,Sørland,67.67,12.69,48.2,87,75,29.97,NO,1600368259
218,Saint Paul Harbor,57.79,-152.41,53.6,62,1,12.75,US,1600368269
219,Lompoc,34.64,-120.46,69.8,56,1,4.7,US,1600368298
220,Along,28.17,94.77,71.78,89,63,1.25,IN,1600368317
221,Port Augusta,-32.5,137.77,64.99,50,100,13.0,AU,1600368356
222,Kaeo,-35.1,173.78,54.0,3,74,5.01,NZ,1600368369
223,São Filipe,14.9,-24.5,81.27,81,59,6.06,CV,1600368361
224,Bathsheba,13.22,-59.52,86.0,66,75,10.29,BB,1600368280
225,Mount Isa,-20.73,139.5,66.2,45,0,2.24,AU,1600368397
226,San Andrés del Rabanedo,42.61,-5.62,75.0,56,75,8.05,ES,1600368709
227,Katsuura,35.13,140.3,82.0,87,93,7.0,JP,1600368312
228,Ilulissat,69.22,-51.1,37.4,69,75,6.93,GL,1600368297
229,Turukhansk,65.82,87.98,51.03,94,100,12.06,RU,1600368443
230,Provideniya,64.38,-173.3,43.63,92,100,7.02,RU,1600368305
231,Manokwari,-0.87,134.08,78.85,75,79,4.79,ID,1600368325
232,George Town,5.41,100.34,80.6,100,20,0.43,MY,1600368253
233,Strezhevoy,60.73,77.59,46.4,81,72,4.47,RU,1600368710
234,Baruun-Urt,46.68,113.28,43.48,73,0,6.69,MN,1600368711
235,Storslett,69.77,21.02,44.6,81,100,3.36,NO,1600368711
236,Itaituba,-4.28,-55.98,102.4,25,18,3.33,BR,1600368711
237,Lata,40.16,-8.33,66.0,88,24,2.21,PT,1600368369
238,Viseu,40.66,-7.91,66.0,89,100,5.14,PT,1600368549
239,Sapa,5.15,120.32,82.42,77,100,8.37,PH,1600368711
240,Port Hedland,-20.32,118.57,73.4,38,46,8.05,AU,1600368463
241,Singaraja,-8.11,115.09,77.36,73,0,3.09,ID,1600368712
242,Novikovo,51.15,37.89,68.9,37,94,16.71,RU,1600368382
243,Airai,-8.93,125.41,57.78,80,100,1.1,TL,1600368313
244,Palmer,42.16,-72.33,75.99,47,75,6.93,US,1600368499
245,Bairiki Village,1.33,172.98,80.6,74,75,11.41,KI,1600368337
246,Bambous Virieux,-20.34,57.76,71.6,73,75,11.41,MU,1600368277
247,Fare,-16.7,-151.02,79.05,77,59,20.96,PF,1600368264
248,Severnoye,56.35,78.36,43.07,91,90,4.74,RU,1600368713
249,Baião,-2.79,-49.67,100.22,27,3,4.56,BR,1600368713
250,Usinsk,65.99,57.53,41.31,82,100,14.65,RU,1600368713
251,Tsogni,-2.79,10.1,74.37,88,100,7.72,GA,1600368714
252,Batagay-Alyta,67.8,130.41,36.25,81,35,1.36,RU,1600368714
253,Mporokoso,-9.37,30.12,75.04,28,57,6.17,ZM,1600368714
254,Denpasar,-8.65,115.22,78.8,100,40,3.36,ID,1600368509
255,Kudahuvadhoo,2.67,72.89,82.96,77,100,10.22,MV,1600368370
256,Vanimo,-2.67,141.3,77.32,84,19,5.7,PG,1600368565
257,Karratha,-20.74,116.85,73.63,27,0,18.3,AU,1600368429
258,Dunedin,-45.87,170.5,44.01,54,0,11.99,NZ,1600368564
259,Hay River,60.82,-115.8,53.6,58,75,10.29,CA,1600368374
260,Kurchum,48.57,83.65,54.59,72,100,10.65,KZ,1600368715
261,Tornio,65.85,24.15,37.4,100,100,4.97,FI,1600368715
262,Henties Bay,-22.12,14.28,55.0,89,0,1.01,NA,1600368341
263,Lesnyye Polyany,55.97,37.87,59.0,81,75,24.61,RU,1600368716
264,Kalāleh,37.38,55.49,69.8,49,0,2.75,IR,1600368716
265,Samarai,-10.62,150.67,78.82,86,100,17.67,PG,1600368341
266,Puerto Madryn,-42.77,-65.04,62.55,27,0,44.87,AR,1600368545
267,Iquique,-20.22,-70.14,62.6,63,26,14.99,CL,1600368528
268,Champasak,14.75,106.0,73.45,99,100,1.41,LA,1600368523
269,Vestmannaeyjar,63.44,-20.27,50.0,81,75,16.11,IS,1600368262
270,Sonāmukhi,23.3,87.42,80.6,92,100,6.04,IN,1600368717
271,Mount Gambier,-37.83,140.77,48.2,87,90,11.41,AU,1600368275
272,Darhan,49.49,105.92,48.92,70,0,3.47,MN,1600368717
273,Esmeraldas,-19.76,-44.31,87.8,27,20,5.82,BR,1600368658
274,Santa Rosa,14.31,121.11,80.6,83,40,2.24,PH,1600368717
275,Kamennomostskiy,44.3,40.19,63.84,64,0,4.88,RU,1600368718
276,Baikunthpur,23.25,82.55,78.4,78,97,1.28,IN,1600368718
277,Ilo,-17.64,-71.34,63.75,73,46,9.17,PE,1600368496
278,Alofi,-19.06,-169.92,71.6,100,75,19.46,NU,1600368306
279,Moroni,-11.7,43.26,75.29,77,38,0.94,KM,1600368718
280,Ola,59.58,151.28,42.46,67,0,8.59,RU,1600368413
281,Sainte-Rose,16.33,-61.7,86.0,70,20,3.36,GP,1600368630
282,Esperance,-33.87,121.9,48.2,100,75,13.87,AU,1600368318
283,Seymchan,62.88,152.43,31.1,96,32,2.71,RU,1600368414
284,Davlekanovo,54.22,55.03,46.4,87,90,6.71,RU,1600368720
285,Vondrozo,-22.82,47.28,56.03,100,0,0.78,MG,1600368677
286,Kahului,20.89,-156.47,82.4,54,1,17.22,US,1600368284
287,Morgantown,39.63,-79.96,75.99,53,90,5.17,US,1600368476
288,Gornopravdinsk,60.05,69.9,49.44,95,100,7.67,RU,1600368720
289,Whitefish,48.41,-114.34,64.4,45,90,4.7,US,1600368568
290,Papara,-3.98,-38.73,84.2,62,0,14.99,BR,1600368721
291,Aloleng,16.13,119.78,80.35,79,97,9.8,PH,1600368721
292,Hambantota,6.12,81.12,78.8,94,82,6.93,LK,1600368265
293,Lavrentiya,65.58,-171.0,42.66,86,39,8.57,RU,1600368276
294,Isangel,-19.55,169.27,68.0,100,40,9.06,VU,1600368300
295,Iqaluit,63.75,-68.51,41.0,65,75,4.7,CA,1600368184
296,Mendi,-6.18,143.65,50.61,95,20,4.36,PG,1600368722
297,Alekseyevka,50.63,38.69,67.23,27,0,15.46,RU,1600368722
298,Saint-Philippe,-21.36,55.77,68.0,64,55,5.82,RE,1600368261
299,Mackenzie,55.3,-123.17,50.0,93,40,3.36,CA,1600368722
300,Yerbogachën,61.28,108.01,43.65,79,0,2.57,RU,1600368311
301,Tokat,40.42,36.58,59.38,39,0,0.94,TR,1600368723
302,Ngunguru,-35.62,174.5,54.0,3,0,5.01,NZ,1600368413
303,Port Blair,11.67,92.75,79.0,89,100,20.04,IN,1600368081
304,Chara,56.91,118.26,41.18,75,79,3.11,RU,1600368294
305,Mazyr,52.05,29.25,51.3,70,0,13.44,BY,1600368723
306,Derzhavīnsk,51.1,66.32,51.01,83,6,12.08,KZ,1600368723
307,Mehamn,71.04,27.85,42.8,87,100,8.05,NO,1600368289
308,São João da Barra,-21.64,-41.05,84.2,51,0,18.34,BR,1600368310
309,Olinda,-8.01,-34.86,82.4,61,40,14.99,BR,1600368465
310,Buraidah,26.33,43.98,93.2,16,0,4.7,SA,1600368589
311,Helong,42.54,129.0,52.79,73,100,5.44,CN,1600368724
312,Nanortalik,60.14,-45.24,41.11,72,100,12.55,GL,1600368356
313,Capoterra,39.18,8.97,79.0,57,17,9.17,IT,1600368725
314,Zhoucheng,35.91,116.31,59.56,53,0,4.65,CN,1600368725
315,Fort Nelson,58.81,-122.7,46.4,81,75,3.36,CA,1600368337
316,Panabá,21.28,-88.27,95.22,45,69,5.88,MX,1600368725
317,Tonota,-21.48,27.48,78.8,39,75,11.41,BW,1600368725
318,Prestea,5.43,-2.14,74.03,87,42,5.59,GH,1600368726
319,Kenora,49.82,-94.43,46.4,45,75,5.82,CA,1600368726
320,Walvis Bay,-22.96,14.51,57.2,76,0,3.36,NA,1600368726
321,Tanete,-3.94,119.78,75.38,76,100,3.91,ID,1600368726
322,La Asuncion,11.03,-63.86,83.14,73,19,4.27,VE,1600368524
323,Asău,46.43,26.4,73.0,49,0,4.7,RO,1600368359
324,Itarema,-2.92,-39.92,82.49,63,0,20.54,BR,1600368727
325,Ponta do Sol,32.67,-17.1,75.2,60,40,12.75,PT,1600368286
326,Kaliua,-5.06,31.79,79.59,25,96,4.03,TZ,1600368727
327,Aden,12.78,45.04,89.6,69,0,9.82,YE,1600368438
328,Talcahuano,-36.72,-73.12,59.0,82,40,10.29,CL,1600368727
329,Oneonta,42.45,-75.06,69.01,73,100,1.01,US,1600368728
330,Kandi,11.13,2.94,74.62,92,15,1.14,BJ,1600368728
331,Kunming,25.04,102.72,63.0,87,90,8.95,CN,1600368728
332,Koygorodok,60.45,51.0,41.49,76,100,3.71,RU,1600368728
333,Linares,-35.85,-71.6,68.29,64,0,8.5,CL,1600368447
334,Ziarat,30.38,67.73,59.63,28,0,4.65,PK,1600368552
335,Tarata,-17.62,-66.02,75.2,22,75,3.36,BO,1600368729
336,Cidreira,-30.18,-50.21,66.29,77,27,7.0,BR,1600368346
337,Vila Franca do Campo,37.72,-25.43,71.6,60,20,12.75,PT,1600368350
338,Codajás,-3.84,-62.06,90.32,49,85,0.58,BR,1600368729
339,San Ignacio,17.16,-89.07,93.0,74,40,6.93,BZ,1600368609
340,Bonthe,7.53,-12.51,78.04,86,38,6.82,SL,1600368360
341,Wadena,46.44,-95.14,57.2,47,40,5.82,US,1600368730
342,Yangi Marg`ilon,40.43,71.72,60.8,44,57,260.16,UZ,1600368468
343,Abengourou,6.73,-3.5,73.18,95,5,4.23,CI,1600368730
344,Clyde River,70.47,-68.59,41.0,60,75,9.17,CA,1600368287
345,Brae,60.4,-1.35,53.6,100,75,11.41,GB,1600368576
346,Shingū,33.73,135.98,76.44,92,100,9.08,JP,1600368313
347,Ostrovnoy,68.05,39.51,40.95,86,0,4.52,RU,1600368342
348,Rome,43.21,-75.46,61.0,82,90,3.06,US,1600368731
349,Lima,-12.04,-77.03,64.99,79,5,5.01,PE,1600368287
350,Vila Velha,-20.33,-40.29,82.4,58,0,18.34,BR,1600368323
351,Okahandja,-21.98,16.92,73.4,7,0,2.24,NA,1600368687
352,Fairbanks,64.84,-147.72,54.0,66,75,8.05,US,1600368103
353,Gorin,51.2,136.67,48.34,95,100,8.03,RU,1600368732
354,Salalah,17.02,54.09,80.6,88,75,6.93,OM,1600368081
355,Daru,-9.08,143.21,78.4,90,100,15.57,PG,1600368355
356,Half Moon Bay,37.46,-122.43,75.0,94,75,3.36,US,1600368408
357,Coahuayana Viejo,18.73,-103.68,78.8,83,75,6.02,MX,1600368332
358,Gien,47.69,2.63,75.0,47,0,12.46,FR,1600368732
359,Blora,-6.97,111.42,75.96,73,7,5.06,ID,1600368733
360,Kumul,42.8,93.45,66.88,24,0,1.45,CN,1600368290
361,Oddur,4.12,43.89,78.75,59,0,19.8,SO,1600368356
362,Pisco,-13.7,-76.22,62.01,89,23,1.99,PE,1600368255
363,Paamiut,61.99,-49.67,41.4,69,100,15.19,GL,1600368280
364,Suez,29.97,32.53,79.93,70,0,14.47,EG,1600368733
365,Kaniama,-7.57,24.18,76.05,60,27,0.45,CD,1600368734
366,Meulaboh,4.14,96.13,76.3,88,65,4.7,ID,1600368360
367,Tucupita,9.06,-62.05,91.09,52,31,2.73,VE,1600368734
368,Abnūb,27.27,31.15,89.47,31,0,10.18,EG,1600368734
369,Muhos,64.81,25.99,48.2,70,100,8.05,FI,1600368735
370,Jalu,29.03,21.55,83.23,47,0,20.45,LY,1600368640
371,Departamento de Maldonado,-34.67,-54.92,75.2,36,0,9.17,UY,1600368541
372,Elliot Lake,46.38,-82.63,53.6,37,1,5.82,CA,1600368735
373,Coquimbo,-29.95,-71.34,57.2,76,3,14.99,CL,1600368279
374,Salto,-31.38,-57.97,75.2,47,0,9.17,UY,1600368686
375,Yumen,40.28,97.2,53.55,35,0,7.76,CN,1600368359
376,Salinas,36.68,-121.66,68.0,68,1,3.36,US,1600368162
377,Taft,31.75,54.21,75.2,22,0,6.93,IR,1600368736
378,Rayong,12.83,101.43,84.99,83,100,7.18,TH,1600368736
379,Trincomalee,8.57,81.23,81.81,74,88,20.49,LK,1600368736
380,Ambon City,-3.7,128.18,78.93,83,100,5.91,ID,1600368254
381,Iberia,29.95,-91.75,86.0,66,20,5.82,US,1600368737
382,Tabou,4.42,-7.35,74.95,88,98,11.54,CI,1600368418
383,Mandalgovi,45.76,106.27,44.49,60,0,0.72,MN,1600368401
384,Kavaratti,10.57,72.64,81.88,81,92,20.47,IN,1600368415
385,Roseau,15.3,-61.39,91.4,66,40,3.36,DM,1600368737
386,Smithers,54.78,-127.17,50.0,93,75,5.82,CA,1600368145
387,Port Hueneme,34.15,-119.2,75.2,72,1,8.05,US,1600368738
388,Naryan-Mar,67.67,53.09,41.29,69,100,11.54,RU,1600368577
389,Meadow Lake,34.8,-106.54,79.0,28,1,4.7,US,1600368738
390,Ko Samui,9.54,99.94,82.83,77,100,24.61,TH,1600368738
391,San Policarpo,12.18,125.51,77.88,82,100,5.06,PH,1600368554
392,Ambulu,-8.35,113.61,73.24,89,35,2.37,ID,1600368738
393,Flinders,-34.58,150.86,57.99,84,98,1.01,AU,1600368329
394,Erzin,36.96,36.2,84.0,81,0,1.99,TR,1600368287
395,Kamenka,51.32,42.77,60.01,38,6,15.21,RU,1600368372
396,Longyearbyen,78.22,15.64,37.4,92,75,10.29,SJ,1600367963
397,Alice Springs,-23.7,133.88,75.2,41,100,13.87,AU,1600368159
398,Itháki,38.36,20.72,73.4,100,75,23.04,GR,1600368739
399,Yinchuan,38.47,106.27,63.34,29,0,3.58,CN,1600368563
400,Kayes,14.0,-11.0,91.4,63,95,4.7,ML,1600368740
401,Linping,30.42,120.3,66.2,93,75,2.24,CN,1600368740
402,Wajir,1.75,40.06,86.0,45,5,16.8,KE,1600368740
403,Matinhos,-25.82,-48.54,71.6,68,90,3.36,BR,1600368667
404,Labuhan,-6.88,112.21,77.52,80,82,7.29,ID,1600368363
405,Verkhnyaya Inta,65.98,60.31,42.57,85,100,13.78,RU,1600368741
406,Bako,5.78,36.57,71.17,62,64,4.05,ET,1600368741
407,Vao,-22.67,167.48,70.59,85,0,8.77,NC,1600368368
408,Moindou,-21.69,165.68,60.8,87,6,3.2,NC,1600368741
409,Stornoway,58.21,-6.39,57.99,87,75,18.34,GB,1600368441
410,Pāvilosta,56.89,21.19,55.4,62,48,12.75,LV,1600368742
411,Mahajanga,-15.72,46.32,75.2,78,11,3.36,MG,1600368742
412,Udachny,66.42,112.4,48.2,61,1,4.47,RU,1600368259
413,Belyy Yar,53.6,91.39,57.2,71,100,11.18,RU,1600368383
414,Voh,-20.97,164.7,64.29,87,0,4.32,NC,1600368742
415,Nishihara,26.18,127.76,82.4,94,40,6.93,JP,1600368263
416,Jaguarão,-32.57,-53.38,71.58,58,0,8.77,BR,1600368743
417,San Luis,-33.3,-66.34,83.44,14,0,9.69,AR,1600368743
418,Batagay,67.63,134.63,37.98,81,27,2.91,RU,1600368743
419,San Isidro,-12.12,-77.05,64.99,79,14,5.01,PE,1600368456
420,Tarauacá,-8.16,-70.77,95.67,33,100,1.61,BR,1600368361
421,Bemidji,47.47,-94.88,57.0,50,75,4.59,US,1600368744
422,Ust'-Shonosha,61.15,41.34,45.46,94,100,15.73,RU,1600368744
423,Lewes,50.87,0.01,59.0,74,0,16.75,GB,1600368744
424,Pimentel,-6.84,-79.93,65.1,73,44,14.18,PE,1600368352
425,Zhigansk,66.77,123.37,37.8,79,0,1.12,RU,1600368279
426,Syumsi,57.11,51.61,40.64,83,0,4.43,RU,1600368745
427,Nantai,40.92,122.8,54.01,63,0,2.93,CN,1600368745
428,Caborca,30.58,-111.1,97.0,26,0,1.01,MX,1600368745
429,Oktyabr'skiy,54.48,53.47,42.37,87,41,4.09,RU,1600368745
430,Vokhtoga,58.81,41.05,58.91,93,100,11.32,RU,1600368745
431,Yar-Sale,66.83,70.83,44.22,92,94,3.94,RU,1600368286
432,Mahon,39.89,4.27,77.0,73,77,3.22,ES,1600368275
433,Chodavaram,17.83,82.95,82.4,94,40,2.24,IN,1600368746
434,Muroto-misakicho,33.28,134.15,80.33,88,100,20.69,JP,1600368375
435,Livingstonia,-10.61,34.11,69.55,51,0,6.17,MW,1600368747
436,Nyurba,63.28,118.33,39.42,90,0,3.04,RU,1600368747
437,Siocon,7.71,122.14,77.9,82,100,4.61,PH,1600368747
438,Mizdah,31.45,12.98,76.64,44,0,11.56,LY,1600368266
439,Russell,32.35,-85.2,77.0,88,90,6.93,US,1600368442
440,Doha,25.29,51.53,91.4,55,2,4.7,QA,1600368748
441,Alexandria,31.22,29.96,80.55,74,0,12.08,EG,1600368099
442,Sémbé,1.65,14.58,73.47,91,100,1.97,CG,1600368588
443,Cap Malheureux,-19.98,57.61,71.01,70,0,3.0,MU,1600368329
444,Salobreña,36.74,-3.59,75.0,83,100,3.0,ES,1600368748
445,Debre Tabor,11.85,38.02,53.37,86,32,5.32,ET,1600368748
446,Stepnyak,52.83,70.78,47.5,85,92,18.28,KZ,1600368749
447,Jumla,29.27,82.18,61.7,69,97,1.23,NP,1600368327
448,Ullapool,57.9,-5.16,59.0,83,11,1.01,GB,1600368749
449,Bereket,39.24,55.52,65.77,27,0,9.26,TM,1600368409
450,Segezha,63.74,34.32,43.48,84,83,23.69,RU,1600368749
451,Vila,42.03,-8.16,63.0,89,99,4.0,PT,1600368556
452,El Carmen,8.51,-73.45,78.19,78,100,2.55,CO,1600368750
453,Tilichiki,60.47,166.1,38.17,90,23,7.36,RU,1600368338
454,Kâhta,37.79,38.62,77.0,38,0,6.93,TR,1600368750
455,Prince Rupert,54.32,-130.32,57.2,93,90,2.24,CA,1600368285
456,Thung Song,8.16,99.68,75.74,88,100,6.31,TH,1600368750
457,Manga,11.66,-1.07,77.68,79,89,6.73,BF,1600368749
458,Linxia Chengguanzhen,35.6,103.21,50.9,54,0,2.66,CN,1600368751
459,Hirara,24.8,125.28,83.75,83,78,15.23,JP,1600368307
460,Bāgli,22.65,76.35,77.0,88,75,3.36,IN,1600368751
461,Zyryanka,65.75,150.85,37.81,91,87,5.82,RU,1600368557
462,Worland,44.02,-107.96,73.0,40,20,3.36,US,1600368751
463,Saint-Augustin,51.23,-58.65,60.98,39,100,27.38,CA,1600368331
464,Ketchikan,55.34,-131.65,59.0,87,1,6.93,US,1600368272
465,Chiredzi,-21.05,31.67,81.32,36,0,11.45,ZW,1600368359
466,Biak,-0.91,122.88,75.78,70,66,5.41,ID,1600368311
467,Dobroye,52.87,39.81,68.0,42,100,17.9,RU,1600368752
468,Guantánamo,20.14,-75.21,89.6,70,75,11.41,CU,1600368752
469,Kolondiéba,11.09,-6.89,75.31,82,35,2.06,ML,1600368753
470,Kieta,-6.22,155.63,78.91,87,100,14.94,PG,1600368403
471,Katobu,-4.94,122.53,74.68,95,73,4.05,ID,1600368718
472,Arrondissement de Gap,44.67,6.0,66.99,70,72,1.88,FR,1600368753
473,Luanda,-8.84,13.23,71.6,88,40,6.93,AO,1600368235
474,Bonfim,3.08,-59.95,89.83,54,93,1.57,BR,1600368753
475,Heraclea,37.51,34.05,68.25,28,0,5.5,TR,1600368754
476,Hamilton,39.18,-84.53,82.0,36,1,11.41,US,1600368231
477,Requena,39.49,-1.1,72.0,76,100,5.99,ES,1600368388
478,Chapais,49.78,-74.85,46.4,42,75,17.22,CA,1600368754
479,Sioux Lookout,50.1,-91.92,51.8,32,40,13.87,CA,1600368437
480,Słupca,52.29,17.87,55.0,60,0,4.0,PL,1600368754
481,Bilibino,68.05,166.44,29.48,96,64,1.57,RU,1600368355
482,Vanderhoof,54.02,-124.02,68.52,56,1,2.42,CA,1600368129
483,Shahr-e Bābak,30.12,55.12,61.36,31,0,14.7,IR,1600368755
484,Salinópolis,-0.61,-47.36,83.61,70,1,14.12,BR,1600368553
485,Birao,10.28,22.79,75.78,88,0,3.85,CF,1600368290
486,Mahibadhoo,3.78,72.97,82.8,76,96,9.51,MV,1600368342
487,Esfarāyen,37.08,57.51,60.8,41,0,4.43,IR,1600368746
488,Martapura,-3.42,114.85,77.0,88,90,1.12,ID,1600368543
489,Caesarea,32.52,34.9,82.4,78,20,9.17,IL,1600368756
490,Formosa do Rio Preto,-11.05,-45.19,95.67,20,94,3.91,BR,1600368756
491,Lesnikovo,55.28,65.32,50.85,84,99,12.84,RU,1600368756
492,Tura,25.52,90.22,74.14,97,100,3.36,IN,1600368283
493,Ushtobe,45.25,77.98,53.74,75,100,12.26,KZ,1600368757
494,Nome,64.5,-165.41,50.0,70,90,14.99,US,1600368299
495,Karatau,43.17,70.47,52.48,51,0,9.24,KZ,1600368757
496,Whitehorse,60.72,-135.05,55.4,44,75,14.99,CA,1600368187
497,Chingirlau,51.09,54.08,47.1,76,100,2.21,KZ,1600368757
498,Laguna,38.42,-121.42,79.0,53,5,5.82,US,1600368308
499,Kintampo,8.06,-1.73,73.44,95,10,3.38,GH,1600368758
500,Thinadhoo,0.53,72.93,82.56,78,1,11.86,MV,1600368509
501,Morgan City,29.7,-91.21,84.99,78,1,4.7,US,1600368357
502,Winnemucca,40.97,-117.74,77.0,13,1,4.7,US,1600368268
503,Casablanca,33.59,-7.62,75.2,69,100,4.7,MA,1600368754
504,Grindavik,63.84,-22.43,50.0,81,75,20.8,IS,1600368288
505,Kampot,10.62,104.18,80.6,88,90,14.99,KH,1600368606
506,Deputatsky,69.3,139.9,39.2,91,100,9.24,RU,1600368274
507,Olafsvik,64.89,-23.71,48.6,82,27,23.09,IS,1600368467
508,Urengoy,65.97,78.37,46.72,79,0,13.35,RU,1600368759
509,Pangody,65.85,74.49,45.91,89,54,9.15,RU,1600368434
510,Bermeo,43.42,-2.72,81.0,65,22,9.98,ES,1600368759
511,Haimen,23.19,116.61,82.4,78,75,2.24,CN,1600368284
512,Jutaí,-5.18,-68.9,93.49,42,98,1.88,BR,1600368760
513,Vostok,46.49,135.88,46.92,100,7,4.05,RU,1600368355
514,Turochak,52.26,87.12,53.8,94,100,3.09,RU,1600368530
515,Kushiro,42.98,144.37,65.89,96,100,2.33,JP,1600368760
516,Gazimurskiy Zavod,51.55,118.33,46.26,91,100,5.17,RU,1600368760
517,Moose Factory,51.26,-80.61,50.0,46,20,20.8,CA,1600368411
518,Oussouye,12.48,-16.55,86.0,74,75,9.17,SN,1600368352
519,Machilipatnam,16.17,81.13,81.14,86,8,7.54,IN,1600368546
520,Kamina,-8.74,24.99,76.32,50,96,4.07,CD,1600368761
521,Aljezur,37.32,-8.8,66.99,69,6,1.01,PT,1600368585
522,Qaqortoq,60.72,-46.03,46.4,52,75,2.24,GL,1600368324
523,Puerto Escondido,15.85,-97.07,84.29,70,100,5.32,MX,1600368250
524,Chimbarongo,-34.7,-71.05,69.8,49,0,11.41,CL,1600368761
525,Imeni Poliny Osipenko,52.42,136.49,47.97,95,100,14.32,RU,1600368762
526,Ishigaki,24.34,124.16,84.49,80,13,15.95,JP,1600368559
527,Poronaysk,49.22,143.12,60.24,96,100,5.08,RU,1600368762
528,Port-Gentil,-0.72,8.78,78.8,83,75,13.38,GA,1600368438
529,Yuancheng,36.65,107.79,56.7,41,0,3.53,CN,1600368762
530,Boa Vista,2.82,-60.67,89.6,55,40,8.05,BR,1600368544
531,Svay Rieng,11.09,105.8,79.48,85,100,8.37,KH,1600368763
532,Nabire,-3.37,135.48,75.22,89,100,3.71,ID,1600368389
533,Denham Springs,30.49,-90.96,86.0,66,1,5.82,US,1600368763
534,Hofn,64.25,-15.21,51.12,78,0,14.07,IS,1600368347
535,Banjarmasin,-3.32,114.59,77.0,88,90,1.12,ID,1600368763
536,Kalasin,16.5,103.5,79.86,81,100,2.39,TH,1600368764
537,Örnsköldsvik,63.29,18.72,44.6,75,100,8.05,SE,1600368325
538,Harper,4.38,-7.72,75.15,87,100,11.74,LR,1600368449
539,Changtu,42.78,124.1,49.46,86,0,8.59,CN,1600368764
540,Sola,-13.88,167.55,82.4,78,75,23.42,VU,1600368502
541,Dahuk,36.87,42.99,78.91,17,0,3.87,IQ,1600368764
542,Rundu,-17.93,19.77,75.97,17,0,4.29,NA,1600368765
543,Sabang,5.89,95.32,83.75,73,100,21.52,ID,1600368396
544,Pimenta Bueno,-11.67,-61.19,103.08,15,91,0.76,BR,1600368707
545,Plaridel,14.89,120.86,80.6,83,40,2.24,PH,1600368765
546,Machalí,-34.18,-70.67,73.4,35,0,11.41,CL,1600368765
547,Christchurch,-43.53,172.63,39.99,93,99,6.93,NZ,1600368119
548,Scicli,36.79,14.7,77.0,53,0,6.93,IT,1600368766
549,Kuala Sungai Baru,2.36,102.04,80.6,88,20,1.12,MY,1600368766
550,Progreso,21.28,-89.67,95.0,63,75,11.41,MX,1600368766
551,Amuntai,-2.42,115.25,75.07,87,69,1.28,ID,1600368766
552,Andijan,40.78,72.34,70.0,92,100,10.0,UZ,1600368767
553,Tsimmerbude,54.67,20.13,55.99,66,75,17.9,RU,1600368767
554,Novoaleksandrovsk,45.49,41.22,64.83,30,0,12.37,RU,1600368767
555,Alugan,12.22,125.48,77.38,82,100,4.79,PH,1600368767
556,Libertador General San Martín,-23.81,-64.79,88.0,29,0,3.0,AR,1600368768
557,Lodja,-3.48,23.43,74.97,79,15,2.53,CD,1600368350
558,Takoradze,4.88,-1.76,75.33,87,2,9.31,GH,1600368281
559,Nantucket,41.28,-70.1,71.6,78,75,9.17,US,1600368470
560,Sawākin,19.11,37.33,92.46,37,0,3.0,SD,1600368458
561,Atambua,-9.11,124.89,70.21,89,98,2.82,ID,1600368272
562,Le Vauclin,14.55,-60.84,84.99,78,75,4.7,MQ,1600368442
563,Basco,20.45,121.97,84.42,81,70,17.81,PH,1600368769
564,Nikolayevka,53.13,47.2,52.18,56,100,10.13,RU,1600368769
565,San Patricio,19.22,-104.7,89.6,66,40,9.17,MX,1600368340
566,Linguère,15.4,-15.12,87.31,59,49,16.35,SN,1600368769
567,Żurrieq,35.83,14.47,78.01,88,0,17.22,MT,1600368770
568,Raipur,21.23,81.63,82.13,76,100,3.15,IN,1600368770
569,Te Anau,-45.42,167.72,36.9,86,100,6.51,NZ,1600368399
