,City,Lat,Lng,Max Temp,Humidity,Cloudiness,Wind Speed,Country,Date
0,Mar del Plata,-38.0,-57.56,57.2,41,100,11.41,AR,1600021902
1,Cape Town,-33.93,18.42,55.99,83,57,7.0,ZA,1600021737
2,Butaritari,3.07,172.79,82.49,74,1,13.65,KI,1600022352
3,Lokosovo,61.13,74.82,47.8,93,2,4.47,RU,1600022352
4,Port Alfred,-33.59,26.89,60.48,64,0,10.16,ZA,1600022352
5,Bluff,-46.6,168.33,48.99,98,100,5.99,NZ,1600022352
6,Barrow,71.29,-156.79,39.2,93,90,14.99,US,1600022353
7,Baltiysk,54.65,19.91,59.0,87,100,6.71,RU,1600022353
8,Kapaa,22.08,-159.32,78.01,83,90,5.82,US,1600022201
9,Ushuaia,-54.8,-68.3,42.8,70,40,6.93,AR,1600022353
10,Mackay,-21.15,149.2,64.99,93,40,8.05,AU,1600022353
11,Chui,-33.7,-53.46,58.5,98,100,4.94,UY,1600022354
12,Qaanaaq,77.48,-69.36,23.88,82,6,7.67,GL,1600022354
13,Atuona,-9.8,-139.03,78.1,77,2,15.95,PF,1600022354
14,Acaraú,-2.89,-40.12,82.65,62,92,22.77,BR,1600022354
15,Ilulissat,69.22,-51.1,30.2,46,5,10.29,GL,1600022354
16,Hobart,-42.88,147.33,46.4,65,40,14.99,AU,1600022151
17,Rikitea,-23.12,-134.97,73.24,81,0,12.33,PF,1600022355
18,Kahului,20.89,-156.47,79.0,54,20,5.82,US,1600022355
19,Japura,-0.32,102.35,74.01,91,100,1.34,ID,1600022096
20,Busselton,-33.65,115.33,57.0,66,100,10.11,AU,1600022355
21,Lebu,-37.62,-73.65,52.56,66,0,16.84,CL,1600022355
22,Vaini,-21.2,-175.2,68.0,72,75,8.05,TO,1600022356
23,Saint Paul Harbor,57.79,-152.41,51.8,62,1,3.36,US,1600022356
24,Yeniseysk,58.45,92.17,46.36,94,91,2.15,RU,1600022356
25,Tete,-16.16,33.59,86.0,37,40,9.17,MZ,1600022356
26,Qaqortoq,60.72,-46.03,46.4,31,0,5.82,GL,1600022357
27,Pisco,-13.7,-76.22,68.0,68,7,9.17,PE,1600022075
28,Puerto Ayora,-0.74,-90.35,77.0,61,20,13.87,EC,1600022357
29,Narsaq,60.92,-46.05,46.4,31,0,5.82,GL,1600022357
30,Saint-Philippe,-21.36,55.77,69.8,73,46,10.29,RE,1600022358
31,Smithers,54.78,-127.17,51.8,81,75,2.24,CA,1600022358
32,Zaranj,30.97,61.88,78.8,19,0,18.34,AF,1600022358
33,Port Hardy,50.7,-127.42,53.6,100,90,2.24,CA,1600022358
34,Nālūt,30.33,10.85,79.88,38,0,12.19,LY,1600022359
35,Cravo Norte,6.3,-70.2,88.21,63,100,5.08,CO,1600022359
36,Tupik,54.43,119.93,47.66,86,85,2.62,RU,1600022359
37,Fare,-16.7,-151.02,78.67,78,100,12.71,PF,1600022360
38,Geraldton,-28.77,114.6,51.8,87,0,5.82,AU,1600022360
39,Yerbogachën,61.28,108.01,42.49,91,0,4.14,RU,1600022360
40,Hilo,19.73,-155.09,78.01,61,1,6.93,US,1600022360
41,Saint George,37.1,-113.58,87.01,13,1,4.7,US,1600022098
42,Faanui,-16.48,-151.75,77.92,79,100,12.06,PF,1600022361
43,Mataura,-46.19,168.86,48.99,98,100,5.99,NZ,1600022361
44,Lata,40.16,-8.33,77.0,64,99,7.0,PT,1600022361
45,Istanbul,41.04,28.98,75.2,78,40,13.87,TR,1600021573
46,Agirish,61.92,63.02,46.36,80,100,8.23,RU,1600022361
47,Atasū,48.68,71.64,63.27,30,98,7.27,KZ,1600022362
48,Castro,-24.79,-50.01,83.89,35,0,7.02,BR,1600022362
49,Talnakh,69.49,88.4,51.8,93,75,11.18,RU,1600022362
50,Matagami,49.75,-77.63,55.4,93,90,11.41,CA,1600022362
51,Khovd,48.01,91.64,44.31,55,0,2.24,MN,1600022363
52,Tiksi,71.69,128.87,39.45,88,2,1.14,RU,1600022363
53,Watsa,3.04,29.54,64.53,99,100,1.14,CD,1600022363
54,Harper,4.38,-7.72,76.73,87,75,11.1,LR,1600022363
55,Iwanai,42.97,140.51,55.8,87,100,7.45,JP,1600022363
56,Lompoc,34.64,-120.46,59.0,93,90,10.65,US,1600022364
57,Norman Wells,65.28,-126.83,37.4,69,75,4.7,CA,1600022364
58,Ukiah,39.15,-123.21,82.99,37,75,5.5,US,1600021803
59,Srednekolymsk,67.45,153.68,40.41,76,0,4.47,RU,1600022364
60,Arraial do Cabo,-22.97,-42.03,84.2,61,0,21.92,BR,1600022364
61,Hermanus,-34.42,19.23,55.0,77,30,5.01,ZA,1600022344
62,Khandyga,62.67,135.6,50.43,83,100,5.08,RU,1600022365
63,San-Pédro,4.75,-6.64,76.3,89,94,7.49,CI,1600022365
64,Aksarka,66.56,67.8,44.38,84,92,8.99,RU,1600022365
65,Imeni Babushkina,59.76,43.13,47.7,91,0,10.25,RU,1600022365
66,Vostok,46.49,135.88,40.96,69,100,3.29,RU,1600022366
67,Gorlice,49.66,21.16,66.0,83,59,1.9,PL,1600022366
68,Ribeira Grande,38.52,-28.7,75.2,78,40,11.41,PT,1600022366
69,Inhambane,-23.86,35.38,71.6,83,20,4.7,MZ,1600022335
70,Navalmoral de la Mata,39.89,-5.54,85.17,23,21,6.87,ES,1600022367
71,Villamartín,36.86,-5.64,91.4,29,72,9.17,ES,1600022367
72,Punta Arenas,-53.15,-70.92,46.4,64,75,19.46,CL,1600022067
73,Fortuna,40.6,-124.16,55.0,100,90,5.82,US,1600022368
74,Copala,16.65,-98.98,86.2,64,10,6.55,MX,1600022368
75,Lüderitz,-26.65,15.16,57.4,65,0,24.11,NA,1600022295
76,Dikson,73.51,80.55,46.24,90,7,17.31,RU,1600022368
77,Tuatapere,-46.13,167.68,48.99,98,100,5.99,NZ,1600022368
78,Grand Gaube,-20.01,57.66,69.01,86,84,4.0,MU,1600022369
79,Zwedru,6.07,-8.13,73.33,95,90,4.47,LR,1600022369
80,Lorengau,-2.02,147.27,81.61,82,100,11.92,PG,1600022369
81,Tucupita,9.06,-62.05,94.46,47,3,4.68,VE,1600022369
82,Constitución,-35.33,-72.42,61.88,46,0,16.02,CL,1600022370
83,Bredasdorp,-34.53,20.04,55.4,71,62,19.46,ZA,1600022370
84,Les Cayes,18.2,-73.75,85.15,69,95,8.68,HT,1600022370
85,Nemuro,43.32,145.57,56.89,66,100,11.12,JP,1600022370
86,Muros,42.78,-9.06,77.0,57,100,1.01,ES,1600022371
87,Byron Bay,-28.65,153.62,55.99,93,0,4.0,AU,1600022371
88,Casambalangan,18.38,122.13,81.28,84,22,4.92,PH,1600022371
89,Maputo,-25.97,32.59,73.0,78,0,14.99,MZ,1600021904
90,Eilat,29.56,34.95,96.8,34,0,11.41,IL,1600022371
91,Hualmay,-11.1,-77.61,65.95,70,31,10.11,PE,1600022372
92,Birjand,32.87,59.22,68.0,16,0,11.41,IR,1600022080
93,Ponta do Sol,32.67,-17.1,73.4,83,20,9.17,PT,1600022301
94,Veinticinco de Mayo,-35.43,-60.17,68.0,22,0,8.01,AR,1600022372
95,Labuhan,-6.88,112.21,76.95,78,73,6.38,ID,1600022373
96,Greenwood,34.17,-82.12,84.0,69,75,4.7,US,1600022373
97,Trairi,-3.28,-39.27,82.47,62,97,17.98,BR,1600022373
98,Stromness,58.97,-3.3,57.2,100,90,12.75,GB,1600022373
99,Baykit,61.67,96.37,46.96,85,2,2.21,RU,1600022373
100,Bambous Virieux,-20.34,57.76,71.6,83,40,11.41,MU,1600022374
101,Vestmannaeyjar,63.44,-20.27,48.2,87,75,20.8,IS,1600022374
102,Bengkulu,-3.8,102.27,75.36,90,81,5.19,ID,1600022039
103,Cañon City,38.44,-105.24,70.0,24,0,1.99,US,1600022374
104,Cayenne,4.93,-52.33,91.4,52,0,13.87,GF,1600022375
105,Hambantota,6.12,81.12,80.1,78,98,17.0,LK,1600022375
106,Port Lincoln,-34.73,135.87,52.72,90,2,5.64,AU,1600022375
107,Ganzhou,28.82,115.43,69.82,84,100,1.41,CN,1600021901
108,Maningrida,-12.07,134.27,66.76,91,80,7.63,AU,1600022375
109,Thompson,55.74,-97.86,50.0,57,40,10.29,CA,1600022231
110,Carlsbad,33.16,-117.35,81.0,69,1,8.05,US,1600022184
111,Severka,56.87,60.3,41.0,100,66,4.47,RU,1600022376
112,Isangel,-19.55,169.27,73.4,83,90,9.17,VU,1600022376
113,Doha,25.29,51.53,96.8,67,0,2.24,QA,1600021853
114,New Norfolk,-42.78,147.06,46.0,75,1,3.0,AU,1600022376
115,Iqaluit,63.75,-68.51,41.0,75,90,3.36,CA,1600022377
116,Boyolangu,-8.12,111.89,71.73,90,96,3.96,ID,1600022377
117,Chanderi,24.72,78.13,81.32,63,17,1.23,IN,1600022377
118,Adrar,20.5,-10.07,104.13,11,93,8.7,MR,1600022377
119,Grand Island,40.92,-98.34,81.0,36,1,4.7,US,1600022341
120,Yellowknife,62.46,-114.35,35.6,59,75,8.05,CA,1600022215
121,George Town,5.41,100.34,80.01,88,20,3.36,MY,1600021812
122,Maragheh,37.39,46.24,71.6,30,1,9.17,IR,1600022378
123,Arrecife,28.96,-13.55,75.2,83,20,6.93,ES,1600022378
124,Khatanga,71.97,102.5,46.99,71,0,5.66,RU,1600022378
125,Kamenka,51.32,42.77,57.24,43,0,8.9,RU,1600022379
126,Tuktoyaktuk,69.45,-133.04,39.2,86,90,24.16,CA,1600022379
127,Port-Gentil,-0.72,8.78,77.0,83,40,14.61,GA,1600022379
128,Jamestown,42.1,-79.24,72.0,88,90,10.29,US,1600022295
129,Provideniya,64.38,-173.3,44.11,94,100,12.21,RU,1600022380
130,Ostrovnoy,68.05,39.51,47.82,95,100,4.79,RU,1600022380
131,Tandil,-37.32,-59.13,60.01,29,100,4.0,AR,1600022342
132,Katsuura,35.13,140.3,71.6,94,75,10.29,JP,1600022380
133,Champerico,14.3,-91.92,75.99,88,63,7.27,GT,1600022380
134,Deputatsky,69.3,139.9,37.38,84,100,3.13,RU,1600022381
135,Tasiilaq,65.61,-37.64,39.2,64,93,8.05,GL,1600022381
136,Talas,38.69,35.55,77.0,36,40,5.82,TR,1600022381
137,Albany,42.6,-73.97,73.99,60,40,3.0,US,1600021996
138,Grindavik,63.84,-22.43,46.4,87,90,14.99,IS,1600022382
139,Pochutla,15.74,-96.47,90.0,66,75,8.05,MX,1600022382
140,Ghanzi,-21.57,21.78,68.52,24,0,8.57,BW,1600022382
141,Mount Isa,-20.73,139.5,73.4,28,0,11.41,AU,1600022382
142,Avarua,-21.21,-159.78,73.4,78,93,9.17,CK,1600022382
143,Bogorodskoye,56.55,37.88,50.0,89,77,8.61,RU,1600022276
144,Airai,-8.93,125.41,54.54,70,0,3.11,TL,1600022383
145,Kavieng,-2.57,150.8,82.33,78,57,13.69,PG,1600022383
146,Lexington,37.99,-84.48,75.0,100,75,3.36,US,1600022054
147,Ndélé,8.41,20.65,72.64,92,94,1.83,CF,1600022383
148,Bella Union,-30.28,-57.6,66.04,90,100,8.9,UY,1600022384
149,Camacha,33.08,-16.33,75.2,73,20,13.87,PT,1600022384
150,Snåase,64.25,12.38,50.0,81,75,12.75,NO,1600022384
151,Ust-Nera,64.57,143.2,42.57,63,99,2.08,RU,1600022384
152,Port Elizabeth,-33.92,25.57,57.2,76,0,13.87,ZA,1600021928
153,Shediac,46.22,-64.54,66.2,39,75,19.46,CA,1600022385
154,Chapais,49.78,-74.85,59.0,93,90,12.75,CA,1600022385
155,Mitsamiouli,-11.38,43.28,77.0,83,20,6.93,KM,1600022385
156,Hong Kong,22.29,114.16,84.2,79,40,9.17,HK,1600021803
157,Northam,51.03,-4.22,66.0,89,0,1.01,GB,1600022386
158,Nikolskoye,59.7,30.79,55.99,66,40,20.13,RU,1600022386
159,Codrington,-38.27,141.97,46.53,91,0,7.83,AU,1600022386
160,Makkah al Mukarramah,21.43,39.83,90.95,36,32,3.98,SA,1600021696
161,Santa Catalina,9.33,122.86,80.6,78,40,4.7,PH,1600022386
162,East London,-33.02,27.91,60.8,67,75,16.11,ZA,1600022072
163,Ojinaga,29.57,-104.42,73.99,83,90,6.17,MX,1600022387
164,Bethel,41.37,-73.41,73.4,64,90,9.17,US,1600022279
165,Berlevåg,70.86,29.09,44.6,100,75,2.24,NO,1600022387
166,Beringovskiy,63.05,179.32,48.76,96,100,18.81,RU,1600022387
167,Nantucket,41.28,-70.1,71.6,68,1,14.99,US,1600022387
168,Sokolo,14.73,-6.12,92.05,37,30,2.93,ML,1600022388
169,Esperance,-33.87,121.9,50.0,93,0,11.41,AU,1600022348
170,Vardø,70.37,31.11,48.2,93,75,10.29,NO,1600022388
171,Cherskiy,68.75,161.3,40.15,78,0,6.89,RU,1600022388
172,Nuuk,64.18,-51.72,39.2,44,0,6.93,GL,1600022388
173,Helong,42.54,129.0,51.89,87,100,2.64,CN,1600022389
174,Trincomalee,8.57,81.23,81.9,74,100,15.64,LK,1600022389
175,Karakol,42.49,78.39,50.76,45,0,2.19,KG,1600022389
176,Ronda,36.74,-5.17,75.99,44,93,8.25,ES,1600022389
177,Jining,35.41,116.58,66.78,94,93,5.1,CN,1600021916
178,Monrovia,6.3,-10.8,78.75,85,64,11.5,LR,1600021675
179,Stephenville,32.22,-98.2,84.2,58,40,11.41,US,1600022390
180,Comodoro Rivadavia,-45.87,-67.5,60.8,29,20,10.29,AR,1600022390
181,La Cumbre,-30.98,-64.49,66.99,27,0,8.99,AR,1600022391
182,Bonthe,7.53,-12.51,78.03,88,100,9.28,SL,1600022391
183,Hay River,60.82,-115.8,42.8,75,75,10.29,CA,1600022391
184,San Martino di Lupari,45.65,11.86,82.4,61,5,5.39,IT,1600022391
185,Kruisfontein,-34.0,24.73,55.99,71,0,1.01,ZA,1600022392
186,Kungurtug,50.6,97.52,32.49,93,100,2.68,RU,1600022392
187,Linxia Chengguanzhen,35.6,103.21,53.04,85,84,1.54,CN,1600022392
188,Władysławowo,54.79,18.4,64.0,59,75,6.93,PL,1600022392
189,Emba,48.83,58.14,61.21,38,0,7.61,KZ,1600022393
190,Jiménez,28.33,-105.4,69.8,52,90,16.11,MX,1600022393
191,Nagorsk,59.32,50.81,51.01,90,100,11.52,RU,1600022393
192,Kodinsk,58.69,99.18,44.73,92,100,3.6,RU,1600022393
193,Yar-Sale,66.83,70.83,45.55,92,33,8.61,RU,1600022394
194,Poya,-21.35,165.15,65.35,85,2,4.56,NC,1600022394
195,Coffeyville,37.04,-95.62,77.0,50,1,11.41,US,1600022287
196,Haines Junction,60.75,-137.51,46.72,53,0,3.29,CA,1600022394
197,Torbay,47.67,-52.73,62.01,48,90,8.05,CA,1600022394
198,Salalah,17.02,54.09,80.6,88,75,5.82,OM,1600022395
199,Houma,29.6,-90.72,90.0,66,75,11.41,US,1600022367
200,Hithadhoo,-0.6,73.08,81.82,69,68,5.53,MV,1600022395
201,Ancud,-41.87,-73.82,41.0,85,28,3.0,CL,1600022395
202,Ciudad Real,39.0,-4.0,88.0,25,0,16.22,ES,1600022395
203,Port Macquarie,-31.43,152.92,52.0,99,27,3.98,AU,1600022396
204,Carnarvon,-24.87,113.63,64.4,100,0,8.05,AU,1600022396
205,Zhangjiakou Shi Xuanhua Qu,40.61,115.04,61.66,85,84,1.72,CN,1600022396
206,Vallenar,-28.57,-70.76,81.97,21,0,7.05,CL,1600022396
207,Euclides da Cunha,-10.51,-39.02,79.07,53,70,14.45,BR,1600022396
208,Ledyard Center,41.44,-72.01,73.99,68,20,12.75,US,1600022397
209,Tabas,33.6,56.92,82.4,23,0,9.17,IR,1600022179
210,Hervey Bay,-25.3,152.85,62.01,94,13,4.0,AU,1600022397
211,Dunedin,-45.87,170.5,50.0,75,100,5.01,NZ,1600022389
212,Zhezkazgan,47.8,67.71,64.24,43,100,7.96,KZ,1600022397
213,Huarmey,-10.07,-78.15,67.17,67,31,11.01,PE,1600022397
214,Coquimbo,-29.95,-71.34,59.0,67,0,13.87,CL,1600022398
215,Bitung,1.45,125.18,75.2,94,40,11.99,ID,1600022398
216,Yangi Marg`ilon,40.43,71.72,64.4,48,0,4.7,UZ,1600022398
217,Dodge City,37.75,-100.02,82.99,34,1,4.7,US,1600022370
218,Guerrero Negro,27.98,-114.06,85.86,37,0,8.9,MX,1600022399
219,Krasnogorskiy,54.6,61.23,44.69,80,52,4.09,RU,1600022399
220,Abnūb,27.27,31.15,89.6,33,0,11.41,EG,1600022399
221,Aklavik,68.22,-135.01,37.4,65,75,5.82,CA,1600022399
222,Aksha,50.28,113.29,38.39,81,0,3.02,RU,1600022399
223,Ilo,-17.64,-71.34,62.98,70,0,7.05,PE,1600022400
224,Amapá,1.0,-52.0,94.06,40,100,3.38,BR,1600022400
225,Manokwari,-0.87,134.08,80.26,73,100,3.38,ID,1600022400
226,Cabo San Lucas,22.89,-109.91,89.01,70,75,13.87,MX,1600022400
227,Mount Gambier,-37.83,140.77,48.2,93,75,5.82,AU,1600022239
228,Makat,47.65,53.35,66.13,40,0,10.4,KZ,1600022401
229,Blythe,33.61,-114.6,95.0,16,1,5.82,US,1600022401
230,Matamoros,25.53,-103.25,77.0,57,90,11.41,MX,1600022401
231,Aykhal,66.0,111.5,42.8,75,0,4.47,RU,1600022401
232,Vinh,18.67,105.67,79.5,87,100,2.64,VN,1600021997
233,Hasaki,35.73,140.83,70.0,100,75,8.05,JP,1600022402
234,Port Hedland,-20.32,118.57,69.8,77,1,6.93,AU,1600022402
235,Cascais,38.7,-9.42,71.6,78,20,8.05,PT,1600022402
236,Asău,46.43,26.4,64.0,81,1,5.01,RO,1600022402
237,Puerto Baquerizo Moreno,-0.9,-89.6,66.72,85,95,9.37,EC,1600022403
238,Ust'-Kut,56.79,105.77,48.87,83,100,8.08,RU,1600022403
239,Chodzież,52.99,16.92,64.99,67,79,2.24,PL,1600022227
240,Tel Aviv-Yafo,32.08,34.78,82.99,69,20,6.93,IL,1600021771
241,Upernavik,72.79,-56.15,31.98,97,100,11.83,GL,1600022403
242,La Ronge,55.1,-105.28,50.0,66,75,8.05,CA,1600022404
243,Kabo,7.7,18.63,75.09,88,88,2.84,CF,1600022404
244,Mahon,39.89,4.27,77.0,65,0,3.36,ES,1600022404
245,São Filipe,14.9,-24.5,79.36,80,100,12.28,CV,1600022404
246,Antsohihy,-14.88,47.99,72.88,56,0,9.48,MG,1600022405
247,Santa Rosa,14.31,121.11,82.99,83,20,2.24,PH,1600022081
248,Chokurdakh,70.63,147.92,42.15,77,10,2.84,RU,1600022405
249,Boma,7.08,-2.17,75.69,85,100,1.34,GH,1600022405
250,San Fernando,15.03,120.69,80.6,88,75,2.24,PH,1600022406
251,Abu Dhabi,24.47,54.37,93.2,70,50,6.93,AE,1600021713
252,Mattawa,46.74,-119.9,64.4,36,90,3.15,US,1600022406
253,Mānāvadar,21.5,70.13,79.92,89,100,7.02,IN,1600022406
254,Pathein,16.78,94.73,78.48,91,100,4.14,MM,1600022406
255,Saldanha,-33.01,17.94,57.33,71,76,14.32,ZA,1600022407
256,Hirara,24.8,125.28,82.47,71,62,5.64,JP,1600022318
257,Lagoa,39.05,-27.98,72.75,82,91,18.75,PT,1600022407
258,Shache,38.42,77.24,61.29,32,100,4.09,CN,1600022057
259,Krasnovishersk,60.41,57.08,49.78,92,100,10.11,RU,1600022407
260,Beroroha,-21.67,45.17,76.55,50,37,5.77,MG,1600022408
261,Philadelphia,39.95,-75.16,81.0,65,75,5.82,US,1600022382
262,Jauja,-11.78,-75.5,61.83,37,91,9.42,PE,1600022408
263,Wanlaweyn,2.62,44.89,79.27,69,43,16.55,SO,1600022408
264,Alappuzha,9.49,76.33,78.26,83,100,1.25,IN,1600022409
265,Arlit,18.74,7.39,102.11,10,0,15.79,NE,1600022409
266,Mékhé,15.11,-16.62,82.4,78,40,10.29,SN,1600022409
267,Canutama,-6.53,-64.38,102.31,25,68,5.66,BR,1600022204
268,Auka,14.93,-83.83,91.83,54,65,5.68,HN,1600022409
269,Sainte-Marie,-20.9,55.55,64.4,82,22,5.82,RE,1600022410
270,Severo-Kuril'sk,50.68,156.12,48.4,82,6,17.76,RU,1600022410
271,Naples,40.83,14.25,86.0,33,0,9.17,IT,1600021884
272,Butterworth,5.4,100.36,78.8,88,20,3.36,MY,1600021963
273,Moranbah,-22.0,148.05,57.94,97,36,11.18,AU,1600022410
274,Longyearbyen,78.22,15.64,37.4,74,75,18.34,SJ,1600022411
275,Biak,-0.91,122.88,75.0,75,100,6.98,ID,1600022411
276,Stavern,59.0,10.03,62.01,82,13,9.17,NO,1600022411
277,Port Blair,11.67,92.75,82.58,78,100,12.12,IN,1600022411
278,Awjilah,29.11,21.29,90.64,24,0,12.8,LY,1600022412
279,Burns Lake,54.23,-125.75,63.54,49,100,2.64,CA,1600022412
280,Nouadhibou,20.93,-17.03,86.0,66,49,12.75,MR,1600022412
281,Abu Samrah,35.3,37.18,72.91,52,0,7.47,SY,1600022413
282,Lipari,38.47,14.95,75.99,80,100,3.0,IT,1600022413
283,Broken Hill,-31.95,141.43,50.0,66,0,12.75,AU,1600022413
284,Tawao,4.25,117.89,75.2,100,20,2.24,MY,1600022413
285,Coyhaique,-45.58,-72.07,50.0,46,20,6.93,CL,1600022414
286,Pembroke,45.82,-77.12,70.0,88,90,8.05,CA,1600022183
287,Mogadishu,2.04,45.34,79.14,80,96,16.69,SO,1600021921
288,Arman',59.7,150.17,45.61,63,0,7.63,RU,1600022414
289,Saryg-Sep,51.5,95.6,35.96,84,99,2.55,RU,1600022414
290,Kuusamo,65.97,29.18,46.4,81,75,4.7,FI,1600022415
291,Columbia,34.0,-81.03,91.0,55,40,3.36,US,1600021763
292,Kavkazskiy,44.27,42.23,69.01,60,0,6.71,RU,1600022415
293,Mahébourg,-20.41,57.7,71.6,83,40,11.41,MU,1600022415
294,Shitkino,56.37,98.35,44.22,93,100,4.05,RU,1600022415
295,Noumea,-22.28,166.46,66.2,88,90,2.24,NC,1600022416
296,Rio Rancho,35.23,-106.66,80.01,19,1,11.41,US,1600022416
297,Saint-Leu,-21.15,55.28,69.8,73,15,10.29,RE,1600022416
298,Malinovoye Ozero,51.68,79.78,55.18,40,7,4.74,RU,1600022416
299,Kuruman,-27.45,23.43,66.99,33,0,12.73,ZA,1600022417
300,Nioro,13.35,-15.75,81.07,85,3,7.74,GM,1600022417
301,Ulaanbaatar,47.91,106.88,33.8,86,0,2.24,MN,1600021931
302,Avera,33.19,-82.53,84.2,66,75,8.05,US,1600022417
303,Guadalajara,20.67,-103.33,75.2,60,40,5.82,MX,1600021649
304,Filimonovo,56.2,95.46,47.08,85,44,5.19,RU,1600022417
305,Kuching,1.55,110.33,75.2,100,40,3.36,MY,1600021748
306,Sumenep,-7.02,113.87,78.75,73,66,6.49,ID,1600022418
307,Rathkeale,52.52,-8.94,66.2,68,20,10.29,IE,1600022418
308,Taltal,-25.4,-70.48,64.4,57,24,8.46,CL,1600022418
309,Pangnirtung,66.15,-65.71,41.0,75,20,6.93,CA,1600022418
310,Linhares,-19.39,-40.07,80.83,55,0,11.07,BR,1600022419
311,Majene,-3.54,118.97,75.85,86,100,10.92,ID,1600022419
312,Orlik,52.52,99.83,35.02,85,100,4.61,RU,1600022419
313,Neiafu,-18.65,-173.98,69.8,68,20,6.93,TO,1600022419
314,Sur,22.57,59.53,80.04,70,0,12.15,OM,1600022420
315,Wanaka,-44.7,169.15,45.46,82,100,9.6,NZ,1600022420
316,Podyuga,61.09,40.86,47.34,87,100,13.42,RU,1600022420
317,Vila Franca do Campo,37.72,-25.43,73.4,69,20,12.75,PT,1600022420
318,Padang,-0.95,100.35,77.23,73,97,3.87,ID,1600021958
319,Aljezur,37.32,-8.8,70.0,85,100,1.99,PT,1600022421
320,Nanortalik,60.14,-45.24,39.47,69,0,7.92,GL,1600022421
321,Lamar,33.67,-95.58,87.01,74,40,9.17,US,1600022421
322,Dakar,14.69,-17.44,86.0,74,75,13.87,SN,1600021803
323,Te Anau,-45.42,167.72,50.09,91,100,5.03,NZ,1600022421
324,Payyanur,12.1,75.2,75.2,100,75,3.4,IN,1600022422
325,Aktyubinskiy,54.81,52.81,49.82,75,0,10.38,RU,1600022422
326,Birao,10.28,22.79,72.28,90,19,1.79,CF,1600022422
327,Abapó,-18.83,-63.47,98.8,19,5,14.23,BO,1600022422
328,Corrales,35.24,-106.61,80.01,19,1,11.41,US,1600022423
329,Honningsvåg,70.98,25.97,48.81,80,80,4.43,NO,1600022391
330,Itoman,26.12,127.67,82.4,78,75,5.82,JP,1600022423
331,Edgewater,28.99,-80.9,86.0,94,75,4.7,US,1600022275
332,Kumul,42.8,93.45,67.93,21,99,7.47,CN,1600022344
333,Kaitangata,-46.28,169.85,50.0,92,100,3.0,NZ,1600022423
334,Raja,8.46,25.68,71.78,94,100,1.1,SS,1600022424
335,Sabha,27.04,14.43,88.03,21,0,10.42,LY,1600022424
336,Itacoatiara,-3.14,-58.44,97.93,34,66,2.95,BR,1600022424
337,Ichchāpuram,19.12,84.7,82.4,85,79,6.4,IN,1600022425
338,Havre-St-Pierre,50.23,-63.6,64.4,55,75,9.17,CA,1600022425
339,Aswān,24.09,32.91,95.29,15,0,16.78,EG,1600022425
340,Pitimbu,-7.47,-34.81,82.4,61,40,17.22,BR,1600022426
341,Olafsvik,64.89,-23.71,46.85,72,97,13.67,IS,1600022426
342,Banjar,-8.19,114.97,78.8,83,20,6.93,ID,1600022426
343,São Miguel do Araguaia,-13.28,-50.16,98.1,14,1,7.56,BR,1600022426
344,Ixtapa,20.7,-105.2,88.0,62,20,6.93,MX,1600022426
345,Pevek,69.7,170.31,41.45,86,80,9.53,RU,1600022427
346,Midland,32.0,-102.08,82.0,54,1,6.93,US,1600022324
347,Chātakonda,17.55,80.65,77.95,88,100,4.12,IN,1600022427
348,Korla,41.76,86.15,71.01,68,0,5.99,CN,1600022427
349,Husavik,66.04,-17.34,44.6,81,75,2.24,IS,1600022428
350,Souillac,-20.52,57.52,71.6,83,40,11.41,MU,1600022428
351,Tela,15.78,-87.45,87.8,74,40,4.7,HN,1600022428
352,Mayumba,-3.43,10.66,75.2,85,89,7.9,GA,1600022428
353,Waterloo,43.47,-80.52,73.99,68,75,18.34,CA,1600022399
354,Umluj,25.02,37.27,87.37,55,0,4.99,SA,1600022429
355,Amudat,1.95,34.95,74.48,53,46,3.85,UG,1600022429
356,Jamālpur,24.92,89.93,79.66,91,100,7.14,BD,1600022429
357,Kafanchan,9.58,8.3,68.63,94,70,1.74,NG,1600022429
358,Mehrān,33.12,46.16,84.2,16,0,2.24,IR,1600022430
359,Huntington,38.42,-82.45,73.99,100,90,4.99,US,1600022377
360,Flinders,-34.58,150.86,57.0,75,0,1.01,AU,1600022430
361,Flin Flon,54.77,-101.86,50.0,57,75,4.7,CA,1600022430
362,Pangoa,-12.12,-73.0,88.65,42,20,5.1,PE,1600022431
363,Tvøroyri,61.56,-6.81,48.2,81,100,7.61,FO,1600022431
364,Sola,-13.88,167.55,79.18,84,97,22.03,VU,1600022431
365,Sulangan,11.14,123.72,84.0,76,82,8.34,PH,1600022431
366,Beipiao,41.79,120.78,59.02,87,91,0.04,CN,1600022431
367,Front Royal,38.92,-78.19,81.0,69,40,4.7,US,1600022251
368,Panjāb,34.39,67.02,45.03,52,0,4.34,AF,1600022432
369,Vao,-22.67,167.48,69.51,80,98,19.8,NC,1600022432
370,Ribeira Brava,32.65,-17.07,73.4,83,20,9.17,PT,1600022432
371,Savannah Bight,16.45,-85.85,83.48,71,7,3.42,HN,1600022432
372,Havelock,34.88,-76.9,84.2,74,90,8.05,US,1600022433
373,Jiuquan,39.74,98.52,54.77,37,0,4.16,CN,1600022433
374,Mossamedes,-15.2,12.15,64.44,81,100,2.06,AO,1600022433
375,São José da Coroa Grande,-8.9,-35.15,78.04,68,88,11.32,BR,1600022433
376,Vicuña,-30.03,-70.71,59.0,67,0,13.87,CL,1600022434
377,Raudeberg,61.99,5.14,52.0,84,98,14.67,NO,1600022434
378,Yulara,-25.24,130.99,66.2,48,0,12.75,AU,1600022434
379,Aleksandrovskiy Zavod,50.92,117.94,49.8,94,100,4.7,RU,1600022434
380,Machalí,-34.18,-70.67,62.6,39,0,11.41,CL,1600022435
381,Ketchikan,55.34,-131.65,57.2,82,1,3.36,US,1600022435
382,Gunnedah,-30.98,150.25,46.4,93,0,4.7,AU,1600022435
383,Porto-Novo,6.5,2.6,78.8,78,40,10.29,BJ,1600022435
384,Buin,-33.73,-70.75,71.01,26,0,5.82,CL,1600022436
385,El Alto,-4.27,-81.21,68.38,72,21,16.42,PE,1600022406
386,Ankang,32.68,109.02,66.69,88,100,0.07,CN,1600021891
387,Weinan,34.5,109.51,75.0,100,40,6.71,CN,1600022436
388,Naze,28.37,129.48,77.0,94,75,6.93,JP,1600022436
389,Santa Maria,-29.68,-53.81,74.59,74,56,1.83,BR,1600022354
390,Pingliang,35.54,106.69,58.39,83,100,2.71,CN,1600022391
391,Lethem,3.38,-59.8,90.23,52,65,3.31,GY,1600022437
392,Chicama,-7.84,-79.15,72.5,55,16,11.83,PE,1600022437
393,Daigo,36.77,140.35,69.8,94,75,4.7,JP,1600022347
394,Acajutla,13.59,-89.83,81.0,87,82,6.93,SV,1600022438
395,Viranşehir,37.24,39.76,83.88,29,0,11.92,TR,1600022438
396,Anadyr,64.75,177.48,44.6,93,40,24.61,RU,1600022438
397,Ararat,39.83,44.7,78.8,34,0,10.29,AM,1600022438
398,Bara,10.37,10.73,75.85,84,100,3.98,NG,1600022438
399,Verkhoyansk,67.54,133.38,47.32,84,92,6.55,RU,1600022439
400,Tilichiki,60.47,166.1,41.72,93,100,11.27,RU,1600022439
401,Salta,-24.79,-65.41,80.6,34,20,5.82,AR,1600021830
402,Krasnoborsk,61.56,45.93,48.13,92,9,8.25,RU,1600022439
403,Saskylakh,71.92,114.08,45.1,81,100,2.21,RU,1600022439
404,Yambio,4.57,28.4,68.77,94,100,1.03,SS,1600022440
405,Mitú,1.2,-70.17,94.44,42,40,2.93,CO,1600022440
406,Klaksvík,62.23,-6.59,48.2,81,100,5.64,FO,1600022440
407,Waingapu,-9.66,120.26,72.54,83,95,6.2,ID,1600022440
408,Mejorada del Campo,40.39,-3.48,87.8,22,79,4.7,ES,1600022441
409,Sambava,-14.27,50.17,72.0,78,82,14.92,MG,1600022441
410,Nānākuli,21.39,-158.15,80.6,61,1,4.7,US,1600022441
411,Teya,60.38,92.63,45.63,88,0,1.03,RU,1600022441
412,Burnie,-41.07,145.92,48.99,72,100,14.0,AU,1600022441
413,Kalmunai,7.42,81.82,81.5,73,100,4.56,LK,1600022442
414,Quatre Cocos,-20.21,57.76,71.6,83,40,11.41,MU,1600022442
415,Tura,25.52,90.22,74.21,97,100,4.72,IN,1600022442
416,Okaihau,-35.32,173.78,46.0,3,54,1.01,NZ,1600022442
417,Ugoofaaru,5.67,73.0,82.67,77,100,11.63,MV,1600022442
418,Ulaangom,49.98,92.07,43.02,64,0,2.04,MN,1600022443
419,Coahuayana Viejo,18.73,-103.68,90.45,57,99,5.73,MX,1600022443
420,Ḩasanābād,36.55,61.05,68.0,34,0,2.24,IR,1600022443
421,Bandar-e Lengeh,26.56,54.88,93.2,36,44,6.93,IR,1600022443
422,Terney,45.05,136.61,54.7,85,100,14.76,RU,1600022444
423,São João da Barra,-21.64,-41.05,82.4,54,0,23.04,BR,1600022444
424,Gijang,35.24,129.21,68.0,82,40,3.36,KR,1600022444
425,Dingle,11.0,122.67,76.5,92,48,4.74,PH,1600022444
426,Rocha,-34.48,-54.33,58.55,89,100,7.92,UY,1600022444
427,Andenes,69.31,16.12,50.0,81,100,10.29,NO,1600022445
428,Juegang,32.32,121.19,71.06,80,100,1.3,CN,1600022445
429,Maceió,-9.67,-35.74,82.4,58,40,13.87,BR,1600021916
430,Puerto del Rosario,28.5,-13.86,75.2,78,20,6.93,ES,1600022445
431,Mtwango,-9.02,34.8,59.18,70,0,8.57,TZ,1600022446
432,College,64.86,-147.8,44.01,80,1,2.15,US,1600022446
433,Polyarny,69.2,33.45,44.6,93,40,2.24,RU,1600022446
434,Mweka,-4.85,21.57,78.78,51,47,2.08,CD,1600022446
435,Wangaratta,-36.37,146.33,39.2,100,90,2.86,AU,1600022447
436,Dondo,-19.61,34.74,71.6,83,75,8.05,MZ,1600022447
437,Safaga,26.73,33.94,89.96,40,0,10.49,EG,1600022447
438,San Ramon,37.78,-121.98,75.0,64,90,5.82,US,1600022447
439,Pacific Grove,36.62,-121.92,57.99,93,90,3.36,US,1600022448
440,Pringsewu,-5.36,104.97,73.54,92,100,3.96,ID,1600022448
441,Córdoba,-31.41,-64.18,72.0,18,0,20.8,AR,1600021771
442,Norton,-17.88,30.7,60.06,70,41,7.43,ZW,1600022448
443,Saint-Pierre,-21.34,55.48,69.8,73,0,10.29,RE,1600022449
444,Gushi,34.64,109.58,71.58,68,100,4.16,CN,1600022449
445,Ust-Kuyga,70.02,135.6,43.45,69,100,6.24,RU,1600022449
446,Kampot,10.62,104.18,78.8,88,20,2.24,KH,1600022449
447,Belyy Yar,53.6,91.39,39.2,100,5,1.54,RU,1600022449
448,Balkanabat,39.51,54.37,76.42,35,0,5.03,TM,1600022450
449,Iskateley,67.68,53.15,48.29,91,100,16.87,RU,1600022450
450,Necochea,-38.55,-58.74,54.0,73,58,8.01,AR,1600022450
451,Ambilobe,-13.2,49.05,72.45,74,0,5.1,MG,1600022450
452,Cidreira,-30.18,-50.21,66.85,89,89,11.23,BR,1600022450
453,Huilong,31.81,121.66,75.99,87,22,1.01,CN,1600022451
454,Adrian,41.9,-84.04,75.0,56,20,12.75,US,1600022172
455,Sitka,57.05,-135.33,53.6,62,1,3.36,US,1600022451
456,Salsomaggiore Terme,44.81,9.98,82.4,57,0,1.12,IT,1600022451
457,Half Moon Bay,37.46,-122.43,64.99,87,90,5.61,US,1600022452
458,Ambulu,-8.35,113.61,71.89,89,68,3.69,ID,1600022452
459,Bathsheba,13.22,-59.52,87.8,70,40,11.41,BB,1600022452
460,San Rafael,-34.62,-68.33,63.45,26,0,4.94,AR,1600022377
461,Bereda,43.27,-7.54,80.01,42,100,5.99,ES,1600022453
462,Vanavara,60.34,102.28,42.69,93,100,4.74,RU,1600022453
463,Marawi,8.0,124.29,78.01,91,85,10.0,PH,1600022453
464,Lander,42.83,-108.73,72.0,26,1,3.36,US,1600022320
465,Khor,47.89,134.95,50.81,88,100,4.29,RU,1600022453
466,Kupang,-10.17,123.58,71.08,71,2,5.37,ID,1600022454
467,Songjianghe,42.19,127.48,42.75,95,2,1.3,CN,1600022454
468,Berdigestyakh,62.1,126.7,47.32,89,100,9.33,RU,1600022454
469,Cockburn Town,21.46,-71.14,84.2,70,40,5.82,TC,1600022238
470,Dubai,25.26,55.3,98.01,34,69,5.82,AE,1600021731
471,Varhaug,58.61,5.65,55.99,97,100,15.26,NO,1600022455
472,Morón,-34.65,-58.62,71.6,43,0,9.17,AR,1600022455
473,Mandera,3.94,41.87,83.5,50,54,10.65,KE,1600022455
474,Phonhong,18.5,102.42,76.05,92,100,1.43,LA,1600022455
475,Valparaíso,-33.04,-71.63,69.8,43,0,13.87,CL,1600021935
476,Ossora,59.24,163.07,45.34,83,71,14.65,RU,1600022456
477,Nurota,40.56,65.69,62.6,30,0,2.24,UZ,1600022456
478,Kenai,60.55,-151.26,50.0,70,20,3.42,US,1600022255
479,Wau,7.7,28.0,71.76,94,88,4.21,SS,1600022456
480,George,-33.96,22.46,55.4,58,0,9.17,ZA,1600022456
481,Seoul,37.57,126.98,64.4,93,1,3.31,KR,1600021859
482,Omiš,43.44,16.69,84.2,35,0,12.75,HR,1600022457
483,Portland,45.52,-122.68,53.6,100,90,2.39,US,1600022367
484,Caravelas,-17.71,-39.25,75.02,78,98,8.75,BR,1600022457
485,Homer,59.64,-151.55,53.01,76,1,5.82,US,1600022457
486,Broome,42.25,-75.83,69.01,82,90,9.17,US,1600022457
487,Careiro da Várzea,-3.2,-59.81,84.2,70,40,3.36,BR,1600022458
488,Ürümqi,43.8,87.6,60.8,41,7,2.24,CN,1600021815
489,Izumo,35.37,132.77,68.0,88,75,6.93,JP,1600022458
490,Narodychi,51.2,29.08,63.41,85,100,8.21,UA,1600022458
491,Troitskoye,52.98,84.68,48.61,72,50,5.79,RU,1600022458
492,Tambura,5.6,27.47,69.84,93,96,0.58,SS,1600022459
493,Darbhanga,26.17,85.9,82.78,80,80,4.43,IN,1600022459
494,Atocha,-20.93,-66.23,60.66,27,55,14.2,BO,1600022459
495,San Quintín,30.48,-115.95,79.66,52,0,12.68,MX,1600022459
496,Sumbe,-11.21,13.84,71.64,81,12,6.73,AO,1600022460
497,Challapata,-18.9,-66.77,58.1,35,96,7.23,BO,1600022460
498,Ozernovskiy,51.5,156.52,48.76,79,91,20.51,RU,1600022460
499,Zaza del Medio,22.0,-79.37,88.23,65,99,5.82,CU,1600022460
500,Hukuntsi,-24.0,21.75,67.62,24,0,7.31,BW,1600022460
501,Honiara,-9.43,159.95,73.4,94,20,4.7,SB,1600021940
502,Cilibia,45.07,27.07,73.67,42,0,6.85,RO,1600022461
503,Zuénoula,7.43,-6.04,75.09,92,36,4.61,CI,1600022461
504,La Libertad,-2.23,-80.9,77.0,69,40,10.29,EC,1600022461
505,Panguna,-6.32,155.48,67.26,95,76,2.19,PG,1600022461
506,Praia da Vitória,38.73,-27.07,77.0,78,20,9.93,PT,1600022462
507,Alyangula,-13.85,136.42,62.6,100,3,6.62,AU,1600022462
508,Chifeng,42.27,118.96,60.67,81,100,1.7,CN,1600021912
509,Harwich,51.94,1.28,66.99,78,0,4.0,GB,1600022462
510,Praia,14.92,-23.51,80.28,80,62,11.16,CV,1600022173
511,Port Augusta,-32.5,137.77,50.0,93,75,5.82,AU,1600022463
512,Kroya,-7.63,109.25,73.92,88,71,3.27,ID,1600022463
513,Kavaratti,10.57,72.64,81.93,79,100,17.27,IN,1600022463
514,Kyren,51.68,102.14,42.3,74,100,4.21,RU,1600022463
515,Dimbokro,6.65,-4.7,74.7,93,100,5.82,CI,1600022464
516,Chimbote,-9.09,-78.58,65.39,72,36,12.59,PE,1600022067
517,Hamilton,39.18,-84.53,82.0,61,40,5.82,US,1600021805
518,Ejido Hermosillo,32.51,-114.92,91.4,18,1,5.82,MX,1600022464
519,Boulder,40.08,-105.35,81.0,21,1,7.58,US,1600022464
520,Ust'-Omchug,61.15,149.63,34.2,88,0,4.97,RU,1600022464
521,Ponta Delgada,37.73,-25.67,73.4,69,20,12.75,PT,1600022465
522,Kudahuvadhoo,2.67,72.89,82.58,75,100,9.01,MV,1600022465
523,Nhulunbuy,-12.23,136.77,68.0,88,40,3.36,AU,1600022465
524,Acapetahua,15.28,-92.7,87.8,74,75,9.17,MX,1600022466
525,Madarounfa,13.31,7.16,82.4,78,20,4.7,NE,1600022466
526,Dongsheng,39.82,109.98,53.98,57,19,1.77,CN,1600022466
527,Davila,18.47,120.58,80.6,94,20,2.24,PH,1600022466
528,Honchō,41.88,140.68,60.21,88,100,14.92,JP,1600022348
529,Kamennogorsk,60.95,29.13,53.01,71,0,6.93,RU,1600022467
530,Jasper,37.2,-94.35,75.99,53,1,11.41,US,1600022467
531,Nabire,-3.37,135.48,75.85,89,83,3.71,ID,1600022467
532,Kaeo,-35.1,173.78,46.0,3,37,1.01,NZ,1600022467
533,Borogontsy,62.67,131.17,50.76,93,98,11.56,RU,1600022468
534,Malé,4.17,73.51,84.2,83,75,12.75,MV,1600021939
535,Laguna,38.42,-121.42,73.4,60,90,3.36,US,1600022468
536,Ritchie,-29.04,24.6,69.8,26,1,8.05,ZA,1600022468
537,Port Moresby,-9.44,147.18,73.4,83,75,11.41,PG,1600021936
538,Mujiayingzi,42.12,118.78,59.16,87,100,2.62,CN,1600022468
539,Rucheng,32.39,120.56,73.0,83,100,2.57,CN,1600022469
540,Russell,32.35,-85.2,88.0,58,75,6.93,US,1600022469
541,Severo-Yeniseyskiy,60.37,93.04,42.53,95,0,1.21,RU,1600022469
542,Terme,41.21,36.97,75.2,73,75,6.93,TR,1600022469
543,Kemijärvi,66.71,27.43,45.0,92,86,3.91,FI,1600022470
544,Meulaboh,4.14,96.13,77.16,91,100,3.53,ID,1600022470
545,Muroto-misakicho,33.28,134.15,76.69,76,84,5.46,JP,1600022470
546,Östersund,63.18,14.64,50.0,66,74,20.8,SE,1600022470
547,Solhan,38.96,41.03,67.24,25,0,0.98,TR,1600022471
548,Wuwei,37.93,102.64,60.57,54,100,3.29,CN,1600022025
549,Atambua,-9.11,124.89,66.15,75,0,4.34,ID,1600022471
550,Yinchuan,38.47,106.27,59.77,71,11,5.88,CN,1600021836
551,Kincardine,56.07,-3.72,66.2,72,90,18.34,GB,1600022278
552,Zhigansk,66.77,123.37,44.91,93,100,15.39,RU,1600022471
553,Ucluelet,48.93,-125.55,57.0,100,90,9.17,CA,1600022465
554,Margate,51.38,1.39,66.99,66,0,1.99,GB,1600022472
555,Krasnosel'kup,65.7,82.47,52.38,92,99,8.46,RU,1600022472
556,Ruston,32.52,-92.64,80.6,74,90,8.05,US,1600022275
557,Qasigiannguit,68.82,-51.19,30.2,46,5,10.29,GL,1600022472
558,Rundu,-17.93,19.77,67.39,24,0,4.12,NA,1600022221
559,Kostomuksha,64.57,30.58,46.24,86,93,11.43,RU,1600022473
560,Glenwood Springs,39.55,-107.32,72.0,29,0,4.94,US,1600022211
561,Kawalu,-7.38,108.21,68.23,91,53,1.07,ID,1600022473
