City_ID,City,Lat,Lng,Max Temp,Humidity,Cloudiness,Wind Speed,Country,Date
0,Aksarka,66.56,67.8,44.13,88,100,13.78,RU,1600396302
1,Caniço,32.63,-16.85,68.0,72,20,5.82,PT,1600396302
2,Teshie,5.58,-0.11,75.2,94,75,10.29,GH,1600396303
3,Ribeira Grande,38.52,-28.7,70.5,78,57,16.4,PT,1600396303
4,Bredasdorp,-34.53,20.04,44.6,93,30,1.12,ZA,1600396011
5,Anadyr,64.75,177.48,44.6,75,75,11.18,RU,1600396304
6,George Town,5.41,100.34,78.01,94,40,3.36,MY,1600396094
7,Punta Arenas,-53.15,-70.92,32.0,90,43,25.28,CL,1600396304
8,Fairbanks,64.84,-147.72,62.6,55,20,6.93,US,1600396082
9,Puerto Ayora,-0.74,-90.35,66.0,90,79,1.01,EC,1600396269
10,Yellowknife,62.46,-114.35,46.4,70,75,12.75,CA,1600396204
11,Tuatapere,-46.13,167.68,51.01,76,100,24.0,NZ,1600396305
12,Kapaa,22.08,-159.32,86.0,62,40,13.87,US,1600396014
13,Dunedin,-45.87,170.5,52.0,61,98,40.0,NZ,1600396305
14,Faya,18.39,42.45,64.4,22,50,5.64,SA,1600396306
15,Hobart,-42.88,147.33,59.0,40,20,8.05,AU,1600396204
16,Bud,39.45,-86.18,63.0,67,40,10.29,US,1600396306
17,Quirinópolis,-18.45,-50.45,82.76,22,95,5.01,BR,1600396084
18,Rikitea,-23.12,-134.97,72.39,80,1,22.01,PF,1600396108
19,Hermanus,-34.42,19.23,52.0,89,21,1.99,ZA,1600396110
20,Butaritari,3.07,172.79,82.27,73,96,12.19,KI,1600396307
21,Busselton,-33.65,115.33,59.0,65,31,5.99,AU,1600396307
22,Dikson,73.51,80.55,44.38,92,53,12.01,RU,1600396113
23,Mataura,-46.19,168.86,51.01,79,100,18.99,NZ,1600396117
24,Bengkulu,-3.8,102.27,83.84,66,40,5.53,ID,1600396307
25,Barrow,71.29,-156.79,44.6,81,90,14.99,US,1600396308
26,Tuktoyaktuk,69.45,-133.04,42.8,93,75,9.17,CA,1600396308
27,Esperance,-33.87,121.9,57.2,100,75,8.05,AU,1600396178
28,Mapiripán,2.89,-72.13,75.33,82,100,3.31,CO,1600396309
29,Plettenberg Bay,-34.05,23.37,54.99,72,0,3.44,ZA,1600396309
30,Provideniya,64.38,-173.3,51.8,66,75,8.95,RU,1600396310
31,Atuona,-9.8,-139.03,77.85,76,26,19.69,PF,1600396310
32,Port Alfred,-33.59,26.89,56.95,77,0,10.78,ZA,1600396310
33,Cape Town,-33.93,18.42,48.2,100,3,2.24,ZA,1600396242
34,Luanda,-8.84,13.23,69.8,88,75,9.17,AO,1600396310
35,Severo-Kuril'sk,50.68,156.12,55.31,83,100,3.38,RU,1600396148
36,Sandy Bay,-42.91,147.35,59.0,41,20,8.05,AU,1600396311
37,Ţahţā,26.77,31.5,84.2,48,0,4.7,EG,1600396311
38,São Filipe,14.9,-24.5,79.65,84,0,7.9,CV,1600396311
39,Palana,59.12,159.97,45.68,74,0,8.43,RU,1600396312
40,Vaini,-21.2,-175.2,71.6,94,90,11.41,TO,1600396116
41,Kahului,20.89,-156.47,89.6,46,20,19.46,US,1600396312
42,Umluj,25.02,37.27,95.25,18,0,17.69,SA,1600396121
43,Taoudenni,22.68,-3.98,89.64,18,15,12.8,ML,1600396313
44,Aklavik,68.22,-135.01,51.8,66,75,6.93,CA,1600396313
45,Sibolga,1.74,98.78,83.08,70,81,2.44,ID,1600396313
46,Slave Lake,55.28,-114.77,57.2,62,1,9.17,CA,1600396313
47,Birao,10.28,22.79,72.36,92,100,1.79,CF,1600396314
48,Arraial do Cabo,-22.97,-42.03,71.6,88,0,9.17,BR,1600396151
49,Dukat,62.55,155.55,36.72,79,100,7.78,RU,1600396314
50,Castro,-24.79,-50.01,59.22,85,100,2.75,BR,1600396113
51,Huanren,41.26,125.37,66.29,49,5,8.41,CN,1600396315
52,Bethel,41.37,-73.41,63.0,93,1,3.71,US,1600396315
53,Lázaro Cárdenas,17.96,-102.2,79.7,84,72,3.96,MX,1600396315
54,Padang,-0.95,100.35,83.89,65,100,6.33,ID,1600396315
55,Takoradze,4.88,-1.76,73.92,89,46,5.93,GH,1600396316
56,Kiryat Shmona,33.21,35.57,80.6,51,0,3.36,IL,1600396316
57,East London,-33.02,27.91,59.63,74,31,11.5,ZA,1600396316
58,Cabo San Lucas,22.89,-109.91,84.2,62,40,2.42,MX,1600396317
59,Santa Isabel Rio Negro,-0.41,-65.02,74.05,96,32,1.03,BR,1600396175
60,Muros,42.78,-9.06,62.01,94,60,7.0,ES,1600396317
61,Albany,42.6,-73.97,57.99,95,100,4.32,US,1600396120
62,Codrington,-38.27,141.97,57.52,84,100,8.9,AU,1600396318
63,Hithadhoo,-0.6,73.08,82.36,79,53,9.84,MV,1600396100
64,Rome,43.21,-75.46,55.4,66,75,4.7,US,1600396318
65,Trairi,-3.28,-39.27,77.13,81,17,12.59,BR,1600396318
66,Airai,-8.93,125.41,79.32,39,4,3.33,TL,1600396130
67,Oranjemund,-28.55,16.43,54.81,93,5,7.0,NA,1600396319
68,Port Elizabeth,-33.92,25.57,48.2,93,0,5.59,ZA,1600396161
69,Hofn,64.25,-15.21,48.47,68,0,4.45,IS,1600396319
70,Tacuarembó,-31.73,-55.98,55.33,82,0,5.14,UY,1600396046
71,Khatanga,71.97,102.5,58.08,53,78,16.84,RU,1600396320
72,Ushuaia,-54.8,-68.3,30.2,86,90,17.22,AR,1600396320
73,Ponta do Sol,32.67,-17.1,68.0,72,20,5.82,PT,1600396320
74,Laguna,38.42,-121.42,80.6,39,1,13.87,US,1600396321
75,Bilma,18.69,12.92,91.38,21,42,8.19,NE,1600396215
76,Tasiilaq,65.61,-37.64,37.4,69,100,2.71,GL,1600396321
77,College,64.86,-147.8,62.6,76,75,3.78,US,1600396322
78,Kamaishi,39.27,141.88,77.0,83,75,5.82,JP,1600396322
79,Olafsvik,64.89,-23.71,48.6,87,63,20.02,IS,1600396322
80,Hilo,19.73,-155.09,82.4,65,75,12.75,US,1600396322
81,Freeport,40.66,-73.58,70.0,83,1,3.36,US,1600396297
82,Bonthe,7.53,-12.51,76.89,86,100,2.39,SL,1600396254
83,Jamestown,42.1,-79.24,57.0,87,75,9.17,US,1600396025
84,Flinders,-34.58,150.86,63.0,81,100,1.01,AU,1600396323
85,Mehamn,71.04,27.85,43.7,81,100,18.43,NO,1600396185
86,Husavik,66.04,-17.34,50.0,61,20,11.41,IS,1600396323
87,Todos Santos,23.45,-110.22,81.0,80,29,1.63,MX,1600396324
88,Maşyāf,35.07,36.34,69.87,53,0,4.45,SY,1600396324
89,Namtsy,62.72,129.67,55.4,43,0,4.47,RU,1600396324
90,Cardston,49.2,-113.3,57.2,71,5,5.82,CA,1600396325
91,Leningradskiy,69.38,178.42,33.58,92,100,17.94,RU,1600396325
92,Mossamedes,-15.2,12.15,58.86,85,0,2.71,AO,1600396325
93,Havre-St-Pierre,50.23,-63.6,37.4,62,1,8.05,CA,1600396264
94,Kaitangata,-46.28,169.85,50.0,67,100,15.99,NZ,1600396326
95,Marsá Maţrūḩ,31.35,27.25,71.6,88,0,6.98,EG,1600396326
96,Avarua,-21.21,-159.78,75.2,69,91,10.29,CK,1600396326
97,Lively,46.43,-81.15,46.0,56,90,10.29,CA,1600396326
98,Ayagoz,47.97,80.44,55.36,43,82,20.56,KZ,1600396327
99,Saint Paul Harbor,57.79,-152.41,55.4,66,20,11.41,US,1600396091
100,Grand Gaube,-20.01,57.66,71.01,67,88,4.0,MU,1600396287
101,Rehoboth,-23.32,17.08,50.67,40,0,1.86,NA,1600396327
102,Mahon,39.89,4.27,71.6,88,53,5.82,ES,1600396327
103,Galle,6.04,80.22,80.62,84,100,15.05,LK,1600396328
104,Kiryat Gat,31.61,34.76,78.01,73,0,1.12,IL,1600396205
105,Thompson,55.74,-97.86,32.0,86,20,4.25,CA,1600396328
106,Ratodero,27.8,68.29,84.2,74,1,6.87,PK,1600396328
107,Fort Nelson,58.81,-122.7,55.4,82,75,2.24,CA,1600396053
108,Vila Velha,-20.33,-40.29,75.99,78,0,11.41,BR,1600396057
109,Ürümqi,43.8,87.6,64.4,39,0,11.18,CN,1600396329
110,Half Moon Bay,37.46,-122.43,73.4,88,90,6.93,US,1600396329
111,Batalha,-9.68,-37.12,65.07,93,0,2.84,BR,1600396329
112,Sackville,45.92,-64.38,57.0,93,90,4.7,CA,1600396203
113,Karratha,-20.74,116.85,80.1,31,0,20.31,AU,1600396330
114,Tayu,-6.54,111.05,87.06,52,17,10.25,ID,1600396330
115,Sechura,-5.56,-80.82,61.86,83,12,10.11,PE,1600396330
116,Beira,-19.84,34.84,71.6,94,40,4.7,MZ,1600396130
117,Usevya,-7.1,31.23,70.99,46,77,9.26,TZ,1600396331
118,Carnarvon,-24.87,113.63,80.6,30,0,12.75,AU,1600396216
119,Ciparay,-7.42,108.47,88.57,50,10,3.85,ID,1600396331
120,Rocha,-34.48,-54.33,57.15,79,1,10.36,UY,1600396167
121,Longyearbyen,78.22,15.64,37.4,86,75,4.7,SJ,1600396331
122,Tessalit,20.2,1.01,85.57,43,49,3.67,ML,1600396332
123,Gunnedah,-30.98,150.25,77.0,41,99,10.29,AU,1600396332
124,Westport,41.14,-73.36,69.8,83,40,3.36,US,1600396332
125,Skjervøy,70.03,20.97,45.55,78,100,17.49,NO,1600396332
126,Grindavik,63.84,-22.43,46.4,93,75,19.46,IS,1600396333
127,Moose Factory,51.26,-80.61,39.2,69,1,10.29,CA,1600396333
128,Mahébourg,-20.41,57.7,69.8,77,75,13.87,MU,1600396333
129,Niamey,13.51,2.11,78.8,88,84,5.82,NE,1600396334
130,Ancud,-41.87,-73.82,46.0,83,94,10.74,CL,1600396334
131,Chui,-33.7,-53.46,55.33,86,0,8.48,UY,1600396334
132,Tiksi,71.69,128.87,51.12,66,75,21.39,RU,1600396334
133,Morehead,37.27,-87.18,66.2,100,1,8.14,US,1600396335
134,Faanui,-16.48,-151.75,78.62,78,4,15.14,PF,1600396118
135,Saldanha,-33.01,17.94,44.6,87,72,2.24,ZA,1600396335
136,Huilong,31.81,121.66,70.0,88,100,3.13,CN,1600396335
137,Lebu,-37.62,-73.65,48.43,83,1,13.06,CL,1600396335
138,Okhotsk,59.38,143.3,55.72,42,0,3.24,RU,1600396336
139,Ilulissat,69.22,-51.1,30.2,54,1,2.24,GL,1600396161
140,Saint Anthony,45.02,-93.22,51.8,75,1,5.7,US,1600396336
141,Ixtapa,20.7,-105.2,78.8,94,90,3.36,MX,1600396234
142,Roald,62.58,6.13,59.0,72,100,19.46,NO,1600396337
143,Batagay,67.63,134.63,53.11,49,13,2.04,RU,1600396337
144,Upernavik,72.79,-56.15,29.62,90,5,7.65,GL,1600396337
145,Xining,36.62,101.77,59.04,37,0,2.75,CN,1600396337
146,Berbera,10.44,45.01,89.02,59,0,1.23,SO,1600396338
147,Kruisfontein,-34.0,24.73,48.94,87,0,4.59,ZA,1600396338
148,Angoche,-16.23,39.91,68.81,91,9,1.5,MZ,1600396338
149,San Patricio,19.22,-104.7,79.16,80,100,1.79,MX,1600396338
150,Kavieng,-2.57,150.8,84.18,74,99,8.05,PG,1600396339
151,Bluff,-46.6,168.33,51.01,76,100,24.0,NZ,1600396339
152,Pisco,-13.7,-76.22,60.8,87,40,9.17,PE,1600396339
153,Abadan,38.05,58.21,55.4,50,0,2.24,TM,1600396340
154,Nan,18.83,100.67,82.4,88,40,4.7,TH,1600396340
155,Quelimane,-17.88,36.89,73.4,94,20,13.87,MZ,1600396340
156,Jacobina,-11.18,-40.52,64.35,87,11,4.12,BR,1600396341
157,Qaanaaq,77.48,-69.36,19.24,88,77,8.9,GL,1600396341
158,Mahanje,-9.93,35.33,60.03,82,2,3.49,TZ,1600396341
159,Sumbe,-11.21,13.84,70.39,89,87,2.86,AO,1600396341
160,Sokoni,-6.43,39.55,73.4,94,20,3.36,TZ,1600396342
161,Sisophon,13.59,102.97,77.72,89,100,10.18,KH,1600396342
162,Andenes,69.31,16.12,44.6,100,100,20.8,NO,1600396342
163,Portland,45.52,-122.68,71.6,68,75,3.29,US,1600395684
164,Rudnogorsk,57.26,103.75,56.28,54,0,6.29,RU,1600396343
165,Bandarbeyla,9.49,50.81,77.23,76,93,23.8,SO,1600396343
166,Ust-Tsilma,65.44,52.15,36.84,82,83,2.57,RU,1600396343
167,Vanimo,-2.67,141.3,87.01,60,45,8.5,PG,1600396343
168,Port Hedland,-20.32,118.57,84.2,16,0,14.99,AU,1600396344
169,New Norfolk,-42.78,147.06,59.0,54,0,1.01,AU,1600396344
170,Naivasha,-0.72,36.44,51.01,89,41,4.21,KE,1600396344
171,Mazyr,52.05,29.25,47.12,72,9,15.43,BY,1600396344
172,Praia da Vitória,38.73,-27.07,70.0,94,75,9.89,PT,1600396112
173,Saint George,37.1,-113.58,91.4,8,1,6.93,US,1600396231
174,Narsaq,60.92,-46.05,44.6,70,100,5.82,GL,1600396345
175,Norman Wells,65.28,-126.83,57.2,54,40,5.82,CA,1600396136
176,Saint-Augustin,51.23,-58.65,41.86,62,19,7.25,CA,1600396345
177,Acarí,-15.43,-74.62,60.8,66,34,2.35,PE,1600396346
178,Souillac,-20.52,57.52,69.8,77,75,13.87,MU,1600396346
179,Fort Frances,48.6,-93.4,33.01,74,1,4.27,CA,1600396346
180,Dudinka,69.41,86.18,50.0,93,40,11.18,RU,1600396346
181,Atar,20.52,-13.05,94.28,14,0,9.84,MR,1600396347
182,Saskylakh,71.92,114.08,56.35,58,0,11.1,RU,1600396347
183,Ville-Marie,47.33,-79.43,39.2,69,75,4.7,CA,1600396211
184,Saint-Philippe,-21.36,55.77,68.0,59,42,8.05,RE,1600396347
185,Hobyo,5.35,48.53,76.32,87,0,17.6,SO,1600396193
186,Béboto,8.27,16.94,69.89,97,100,3.27,TD,1600396348
187,Dalvik,65.97,-18.53,50.0,61,20,11.41,IS,1600396348
188,Departamento de Maldonado,-34.67,-54.92,62.6,59,1,9.17,UY,1600396230
189,Uruaçu,-14.52,-49.14,77.56,30,31,1.95,BR,1600396349
190,Nhamundá,-2.19,-56.71,79.45,63,3,0.45,BR,1600396349
191,Bambous Virieux,-20.34,57.76,71.01,77,75,13.87,MU,1600396349
192,Polovinnoye,54.79,65.99,47.57,86,97,13.71,RU,1600396349
193,Tura,25.52,90.22,79.29,93,38,1.39,IN,1600396349
194,Emba,48.83,58.14,48.83,75,1,4.72,KZ,1600396225
195,Pangnirtung,66.15,-65.71,33.93,78,4,5.26,CA,1600396122
196,Egvekinot,66.32,-179.17,38.55,74,92,9.86,RU,1600396350
197,Tsimmerbude,54.67,20.13,55.4,66,40,13.42,RU,1600396350
198,Vikevåg,59.1,5.7,54.0,93,75,6.93,NO,1600396351
199,Victor Harbor,-35.57,138.62,64.99,77,100,1.01,AU,1600396351
200,Hong Kong,22.29,114.16,87.01,82,97,20.02,HK,1600396243
201,San Cristobal,7.77,-72.22,66.34,81,23,1.57,VE,1600396351
202,Evensk,61.95,159.23,50.97,46,23,9.75,RU,1600396351
203,Katsuura,35.13,140.3,89.6,62,75,28.86,JP,1600396352
204,Aswān,24.09,32.91,86.34,25,0,9.37,EG,1600396352
205,Gualaquiza,-3.4,-78.55,62.28,89,27,1.32,EC,1600396352
206,Torbay,47.67,-52.73,64.0,82,75,19.46,CA,1600396352
207,Istanbul,41.04,28.98,69.8,88,40,2.24,TR,1600396241
208,Marzuq,14.4,46.47,76.37,48,0,1.19,YE,1600396353
209,Beruwala,6.48,79.98,81.12,83,98,13.31,LK,1600396353
210,St. George's,12.06,-61.75,82.4,83,20,5.82,GD,1600396101
211,Los Llanos de Aridane,28.66,-17.92,71.6,73,85,6.93,ES,1600396353
212,Zhigansk,66.77,123.37,51.93,48,0,2.33,RU,1600396354
213,Akureyri,65.68,-18.09,50.0,61,20,11.41,IS,1600396354
214,Praia,14.92,-23.51,79.56,82,0,6.64,CV,1600396249
215,Santa Cruz de la Sierra,-17.8,-63.17,66.2,82,75,3.36,BO,1600396354
216,Ahipara,-35.17,173.17,57.61,80,100,16.62,NZ,1600396354
217,Lompoc,34.64,-120.46,64.99,88,20,8.05,US,1600396055
218,Makkah al Mukarramah,21.43,39.83,85.53,27,12,5.59,SA,1600396355
219,Tobermory,45.25,-81.67,52.93,58,0,19.91,CA,1600396355
220,Noumea,-22.28,166.46,82.4,58,75,13.87,NC,1600396289
221,Coyhaique,-45.58,-72.07,41.0,80,75,6.93,CL,1600396355
222,Sakaiminato,35.55,133.23,68.0,100,75,4.7,JP,1600396355
223,Manggar,-2.88,108.27,84.92,67,10,14.79,ID,1600396356
224,Kaeo,-35.1,173.78,57.99,3,100,11.99,NZ,1600396154
225,Biak,-0.91,122.88,84.2,59,59,2.8,ID,1600396356
226,Srednekolymsk,67.45,153.68,42.06,88,99,15.75,RU,1600396356
227,Lüderitz,-26.65,15.16,55.83,71,0,13.65,NA,1600396357
228,Taltal,-25.4,-70.48,57.97,64,18,4.27,CL,1600396184
229,Naze,28.37,129.48,86.0,84,75,9.17,JP,1600396357
230,Dembī Dolo,8.53,34.8,58.48,89,78,3.94,ET,1600396357
231,Manbij,36.53,37.95,68.0,77,0,1.12,SY,1600396357
232,Ostrovnoy,68.05,39.51,39.25,83,100,6.29,RU,1600396358
233,Östersund,63.18,14.64,50.0,61,100,8.05,SE,1600396213
234,Ciudad Bolivar,8.12,-63.55,81.23,70,72,5.41,VE,1600396358
235,Pahrump,36.21,-115.98,88.0,13,0,1.01,US,1600396138
236,Kargasok,59.06,80.86,45.19,94,58,10.38,RU,1600396358
237,Northam,51.03,-4.22,53.01,82,0,3.0,GB,1600396359
238,Okha,53.57,142.95,52.93,91,100,22.35,RU,1600396359
239,Shalya,57.25,58.73,37.99,93,97,7.29,RU,1600396359
240,Caxias,38.7,-9.28,66.0,82,20,6.93,PT,1600396360
241,Iracoubo,5.48,-53.2,78.73,85,0,11.16,GF,1600396360
242,Petropavlovsk-Kamchatskiy,53.05,158.65,57.2,87,40,8.95,RU,1600396266
243,Papara,-3.98,-38.73,79.0,78,20,13.87,BR,1600396360
244,Waipawa,-41.41,175.52,50.0,71,66,9.17,NZ,1600396360
245,Geraldton,-28.77,114.6,69.8,35,0,17.22,AU,1600396361
246,Nikolskoye,59.7,30.79,45.0,93,90,15.66,RU,1600396361
247,Barinas,8.62,-70.21,74.95,83,50,3.31,VE,1600396361
248,Tautira,-17.73,-149.15,82.4,65,40,9.17,PF,1600396361
249,Comodoro Rivadavia,-45.87,-67.5,48.2,49,0,26.4,AR,1600396175
250,Borogontsy,62.67,131.17,56.86,41,0,4.23,RU,1600396362
251,Quatre Cocos,-20.21,57.76,71.01,77,75,13.87,MU,1600396362
252,Shimoda,34.67,138.95,84.2,83,75,25.28,JP,1600396362
253,Cayenne,4.93,-52.33,77.0,94,0,12.39,GF,1600396206
254,Avera,33.19,-82.53,73.4,97,90,5.82,US,1600396187
255,La Ronge,55.1,-105.28,41.0,86,40,4.29,CA,1600396363
256,Mayo,38.89,-76.51,69.01,94,90,7.18,US,1600396223
257,Lorengau,-2.02,147.27,86.41,67,93,7.43,PG,1600396145
258,Constitución,-35.33,-72.42,53.08,85,0,13.35,CL,1600396363
259,Beloha,-25.17,45.05,63.57,93,0,4.32,MG,1600396124
260,Salalah,17.02,54.09,80.6,83,75,8.05,OM,1600396364
261,Mackay,-21.15,149.2,77.0,65,40,17.22,AU,1600396288
262,Berdigestyakh,62.1,126.7,57.33,43,0,2.57,RU,1600396364
263,Port-Cartier,50.03,-66.87,28.4,86,5,2.24,CA,1600396364
264,Tabas,33.6,56.92,75.2,27,0,6.93,IR,1600396080
265,Sambava,-14.27,50.17,67.64,86,58,8.77,MG,1600396365
266,Great Yarmouth,52.61,1.73,59.0,79,93,4.0,GB,1600396365
267,Bentiu,9.23,29.83,72.93,92,7,1.48,SS,1600396365
268,Saint-Pierre,-21.34,55.48,66.2,59,15,8.05,RE,1600396173
269,Arlit,18.74,7.39,87.12,40,100,1.61,NE,1600396366
270,Coquimbo,-29.95,-71.34,53.6,87,0,1.3,CL,1600396212
271,Dhidhdhoo,6.88,73.1,82.65,77,62,17.43,MV,1600396366
272,Yulara,-25.24,130.99,66.2,42,0,11.41,AU,1600396366
273,Makhalino,53.09,46.22,53.24,44,71,15.7,RU,1600396366
274,Mezhdurechenskiy,59.6,65.93,44.01,83,100,9.73,RU,1600396367
275,Omsukchan,62.53,155.8,39.16,72,99,5.73,RU,1600396367
276,Shelburne,44.08,-80.2,45.0,80,20,4.7,CA,1600396367
277,Meulaboh,4.14,96.13,78.1,81,100,2.89,ID,1600396367
278,Lamu,-2.27,40.9,75.2,94,40,4.7,KE,1600396368
279,Gazli,40.13,63.45,56.95,35,0,3.87,UZ,1600396368
280,Vodyane,47.49,34.49,60.62,75,4,19.37,UA,1600396368
281,Maragogi,-9.01,-35.22,72.37,81,0,5.19,BR,1600396368
282,São João da Barra,-21.64,-41.05,72.79,80,0,19.17,BR,1600396369
283,Lethem,3.38,-59.8,76.64,83,25,3.76,GY,1600396369
284,Sangar,63.92,127.47,55.31,49,11,3.85,RU,1600396369
285,Mount Isa,-20.73,139.5,89.6,38,40,14.99,AU,1600396258
286,Clyde River,70.47,-68.59,33.8,85,90,2.24,CA,1600396369
287,Verkhoyansk,67.54,133.38,52.7,48,0,2.98,RU,1600396370
288,Santa Teresa del Tuy,10.23,-66.66,70.0,79,60,0.74,VE,1600396370
289,Dvinskoy Bereznik,62.86,42.71,40.46,89,100,10.51,RU,1600396370
290,Mount Gambier,-37.83,140.77,57.2,76,90,12.75,AU,1600396370
291,Dingle,11.0,122.67,81.68,80,100,1.39,PH,1600396371
292,Arinos,-15.92,-46.11,68.83,42,0,1.7,BR,1600396371
293,Camacha,33.08,-16.33,71.6,68,40,18.34,PT,1600396371
294,Kattivākkam,13.22,80.32,84.2,70,75,9.17,IN,1600396371
295,Mar del Plata,-38.0,-57.56,57.2,47,0,9.17,AR,1600396160
296,Mēga,4.05,38.3,57.61,99,98,17.27,ET,1600396372
297,Chekalin,54.1,36.24,46.4,93,90,11.18,RU,1600396372
298,Iqaluit,63.75,-68.51,35.6,59,40,14.99,CA,1600396319
299,San Esteban,15.2,-85.75,73.08,85,12,2.89,HN,1600396372
300,Kumul,42.8,93.45,74.79,17,0,9.4,CN,1600396107
301,Gizo Government Station,-8.1,156.84,83.37,72,95,9.28,SB,1600396373
302,Cochrane,51.18,-114.47,61.0,54,1,9.17,CA,1600396204
303,Tegul'det,57.31,88.17,54.68,82,1,9.6,RU,1600396373
304,Flin Flon,54.77,-101.86,39.87,69,0,3.85,CA,1600396373
305,Ambulu,-8.35,113.61,84.27,59,0,4.07,ID,1600396182
306,Smithers,54.78,-127.17,60.8,82,40,3.36,CA,1600396203
307,Senno,59.53,33.92,45.12,95,100,11.74,RU,1600396374
308,Erzincan Province,39.75,39.5,53.6,58,0,2.24,TR,1600396374
309,Honiara,-9.43,159.95,87.8,62,75,11.41,SB,1600396374
310,Cockburn Town,21.46,-71.14,83.23,78,0,13.2,TC,1600396155
311,Santa Cruz de La Palma,28.68,-17.76,71.6,73,58,6.93,ES,1600396375
312,Río Gallegos,-51.62,-69.22,35.6,69,9,28.86,AR,1600396375
313,Jiexiu,37.02,111.91,74.03,28,0,8.1,CN,1600396375
314,Nizhniy Ingash,56.2,96.53,60.12,63,100,5.32,RU,1600396375
315,Cherskiy,68.75,161.3,36.73,81,98,5.91,RU,1600396376
316,Pevek,69.7,170.31,33.67,91,96,12.15,RU,1600396376
317,Chiredzi,-21.05,31.67,65.95,91,20,7.02,ZW,1600396376
318,Amalāpuram,16.58,82.02,84.2,83,75,5.82,IN,1600396376
319,Hvide Sande,56.0,8.13,39.2,93,53,1.12,DK,1600396377
320,Xiongzhou,25.12,114.3,72.34,80,97,5.35,CN,1600396377
321,Yabassi,4.46,9.97,77.0,100,75,2.24,CM,1600396377
322,Hamilton,39.18,-84.53,66.99,68,1,9.17,US,1600396205
323,Yar-Sale,66.83,70.83,46.38,91,100,7.52,RU,1600396377
324,Ndendé,-2.4,11.36,74.84,83,100,2.21,GA,1600396378
325,Kamphaeng Phet,16.48,99.52,88.0,99,100,4.03,TH,1600396267
326,Klaksvík,62.23,-6.59,50.0,100,86,13.87,FO,1600396378
327,Obzor,42.82,27.88,66.0,88,62,6.93,BG,1600396378
328,Peno,56.93,32.74,45.0,92,99,9.17,RU,1600396379
329,Lavrentiya,65.58,-171.0,46.96,75,100,10.56,RU,1600396379
330,Harper,4.38,-7.72,74.35,89,95,9.6,LR,1600396379
331,Fortuna,40.6,-124.16,66.99,82,20,10.29,US,1600396096
332,Tommot,58.96,126.29,54.5,48,41,8.63,RU,1600396379
333,San Luis,-33.3,-66.34,66.88,25,0,8.99,AR,1600396377
334,Caucayá,-0.19,-74.78,73.99,92,100,2.3,CO,1600396380
335,Lopătari,45.48,26.58,50.0,86,26,8.01,RO,1600396380
336,Nemuro,43.32,145.57,64.4,100,75,6.93,JP,1600396155
337,Imbituba,-28.24,-48.67,66.2,88,75,2.24,BR,1600396381
338,Arrondissement du Havre,49.58,0.33,51.8,76,0,10.29,FR,1600396381
339,Voh,-20.97,164.7,80.02,57,1,12.95,NC,1600396381
340,Abu Dhabi,24.47,54.37,82.4,83,0,8.05,AE,1600396254
341,Saurimo,-9.66,20.39,70.54,69,99,3.8,AO,1600396179
342,Baijiantan,45.63,85.18,67.77,38,100,37.67,CN,1600396382
343,Bayir,37.27,28.22,66.2,82,0,2.24,TR,1600396382
344,Enugu,6.44,7.49,75.2,100,75,5.26,NG,1600396382
345,Selenduma,50.91,106.24,57.79,57,0,1.77,RU,1600396382
346,Gondanglegi,-7.75,112.01,91.36,39,33,5.73,ID,1600396382
347,Madang,-5.22,145.8,88.11,62,73,9.17,PG,1600396243
348,Iquitos,-3.75,-73.25,77.27,71,80,2.17,PE,1600396120
349,Tofield,53.37,-112.67,62.01,65,40,1.99,CA,1600396383
350,Najrān,17.49,44.13,68.0,30,0,4.7,SA,1600396383
351,Tartagal,-22.52,-63.8,66.54,43,0,4.0,AR,1600396383
352,Alofi,-19.06,-169.92,75.2,88,75,16.11,NU,1600396384
353,Hohhot,40.81,111.65,59.0,44,0,4.47,CN,1600396384
354,Bubaque,11.28,-15.83,79.92,86,100,16.78,GW,1600396384
355,Shūshtar,32.05,48.86,81.18,21,0,4.79,IR,1600396384
356,Le Moule,16.33,-61.35,77.0,94,75,2.24,GP,1600396205
357,Erenhot,43.65,111.98,60.08,34,0,7.87,CN,1600396385
358,Morón,-34.65,-58.62,69.8,35,0,11.41,AR,1600396385
359,Vardø,70.37,31.11,44.94,75,100,23.38,NO,1600396134
360,Marawi,8.0,124.29,84.99,76,86,5.01,PH,1600396385
361,Valparaíso,-33.04,-71.63,66.2,63,0,9.17,CL,1600396121
362,Lukulu,-14.37,23.24,67.71,67,59,4.21,ZM,1600396386
363,Toyooka,35.53,134.83,68.0,100,75,8.05,JP,1600396288
364,Hay River,60.82,-115.8,51.8,62,40,5.82,CA,1600396386
365,Mapimí,25.82,-103.85,77.0,57,90,6.93,MX,1600396386
366,Laizhou,37.18,119.93,73.54,44,0,8.03,CN,1600396387
367,Poum,-20.23,164.02,72.68,78,0,9.98,NC,1600396167
368,Kavaratti,10.57,72.64,82.42,80,100,21.61,IN,1600396387
369,Berlevåg,70.86,29.09,43.61,82,100,26.37,NO,1600396387
370,Touros,-5.2,-35.46,73.4,83,20,3.36,BR,1600396172
371,Asău,46.43,26.4,61.0,67,100,18.34,RO,1600396388
372,Ulladulla,-35.35,150.47,62.6,77,90,6.93,AU,1600396116
373,Guaraniaçu,-25.1,-52.88,53.96,95,85,0.83,BR,1600396388
374,Chokurdakh,70.63,147.92,44.87,89,100,14.12,RU,1600396388
375,Udachny,66.42,112.4,53.6,46,0,6.71,RU,1600396388
376,Omboué,-1.57,9.26,74.68,88,100,8.37,GA,1600396097
377,Grass Valley,39.22,-121.06,73.4,28,1,4.34,US,1600396175
378,Umm Kaddadah,13.6,26.69,84.42,54,6,10.76,SD,1600396389
379,Richards Bay,-28.78,32.04,61.3,88,3,6.13,ZA,1600396389
380,Huicheng,23.04,116.29,78.8,94,75,6.71,CN,1600396389
381,Jalu,29.03,21.55,73.24,71,0,9.08,LY,1600396390
382,Mtwara,-10.27,40.18,72.64,87,12,5.59,TZ,1600396390
383,Itoman,26.12,127.67,87.8,84,40,9.17,JP,1600396390
384,Kristinestad,62.27,21.38,49.26,66,98,7.72,FI,1600396390
385,Balancán,17.8,-91.53,74.95,94,88,8.12,MX,1600396391
386,Juegang,32.32,121.19,66.36,85,100,11.01,CN,1600396391
387,Kemlya,54.7,45.24,56.14,43,100,15.17,RU,1600396391
388,Mamakan,57.82,114.0,57.83,56,0,1.19,RU,1600396391
389,Eyrarbakki,63.86,-21.15,46.4,87,75,13.87,IS,1600396392
390,Solnechnyy,50.72,136.63,48.6,89,100,9.22,RU,1600396392
391,Derzhavīnsk,51.1,66.32,50.22,86,39,8.93,KZ,1600396218
392,Chekhov,55.14,37.47,48.2,87,90,8.95,RU,1600396392
393,Bayāna,26.9,77.28,91.11,44,16,4.7,IN,1600396393
394,Birnin Kebbi,12.45,4.2,75.92,87,62,1.9,NG,1600396393
395,Batagay-Alyta,67.8,130.41,50.45,47,0,2.44,RU,1600396393
396,Verkhniye Kigi,55.41,58.6,40.53,89,36,8.23,RU,1600396393
397,Yerbogachën,61.28,108.01,54.55,60,0,3.74,RU,1600396148
398,Mujiayingzi,42.12,118.78,61.7,41,0,18.79,CN,1600396394
399,Tongchuanshi,35.08,109.09,73.89,29,0,6.53,CN,1600396394
400,Hasaki,35.73,140.83,90.0,70,75,18.34,JP,1600396192
401,Zabid,14.2,43.32,86.36,76,0,3.74,YE,1600396394
402,Aginskoye,51.1,114.53,54.84,54,0,11.95,RU,1600396395
403,Vitim,59.45,112.56,58.15,53,0,5.68,RU,1600396395
404,Salta,-24.79,-65.41,55.4,58,0,0.49,AR,1600396163
405,General Roca,-39.03,-67.58,55.4,37,100,10.29,AR,1600396395
406,Raudeberg,61.99,5.14,55.99,83,100,30.0,NO,1600396257
407,Lagos,6.58,3.75,73.53,94,55,2.93,NG,1600396331
408,Barcelos,41.54,-8.62,63.0,93,89,4.7,PT,1600396396
409,Ankazoabo,-22.28,44.52,65.5,43,0,6.85,MG,1600396396
410,Murud,18.33,72.97,78.73,90,100,5.37,IN,1600396396
411,Resplendor,-19.33,-41.26,68.34,71,1,2.35,BR,1600396396
412,Gladstone,-23.85,151.25,77.0,50,14,16.11,AU,1600396397
413,Tangshan,39.63,118.18,69.01,38,0,10.49,CN,1600396397
414,Assiut,27.18,31.18,78.8,61,0,10.29,EG,1600396397
415,Aracaju,-10.91,-37.07,77.0,65,40,5.82,BR,1600396255
416,Auki,-8.77,160.7,82.44,76,100,7.0,SB,1600396397
417,Pundaguitan,6.37,126.17,79.14,83,100,10.25,PH,1600396398
418,Doha,25.29,51.53,87.8,62,0,4.7,QA,1600396118
419,Dumas,35.87,-101.97,68.0,52,1,7.16,US,1600396398
420,Bay City,43.59,-83.89,53.6,66,40,8.05,US,1600396330
421,Alekseyevsk,57.84,108.35,58.17,50,0,5.39,RU,1600396398
422,Brae,60.4,-1.35,55.4,93,75,13.87,GB,1600396189
423,Cumberland,35.05,-78.87,73.99,100,90,3.36,US,1600396203
424,Port Augusta,-32.5,137.77,84.2,28,24,20.8,AU,1600396399
425,Malé,4.17,73.51,82.4,83,75,18.34,MV,1600396399
426,Shumskiy,54.83,99.13,57.69,68,52,5.91,RU,1600396400
427,Nanortalik,60.14,-45.24,43.52,90,86,11.86,GL,1600396400
428,Sitka,57.05,-135.33,57.2,71,75,0.92,US,1600396400
429,Ushtobe,45.25,77.98,56.89,50,0,14.74,KZ,1600396400
430,Issoire,45.55,3.25,62.6,67,1,3.36,FR,1600396401
431,Khovd,48.01,91.64,62.67,29,42,2.48,MN,1600396219
432,Alappuzha,9.49,76.33,80.69,83,59,5.88,IN,1600396401
433,Naviraí,-23.07,-54.19,65.66,79,86,2.19,BR,1600396401
434,Parksville,49.32,-124.32,66.99,84,39,3.0,CA,1600396401
435,Sinegor'ye,62.08,150.48,43.59,62,68,3.65,RU,1600396402
436,Vila,42.03,-8.16,66.0,100,90,6.93,PT,1600396402
437,Hastings,50.86,0.57,53.01,81,15,4.0,GB,1600396207
438,Saint-Leu,-21.15,55.28,68.0,59,4,8.05,RE,1600396402
439,Mazamari,-11.33,-74.53,73.4,69,92,1.34,PE,1600396403
440,Luang Prabang,19.89,102.13,80.6,83,90,4.7,LA,1600396403
441,Carson City,39.16,-119.77,75.2,12,1,3.36,US,1600396403
442,Tari,12.41,4.49,75.52,86,82,2.35,NG,1600396403
443,Shakhtinsk,49.71,72.59,46.4,87,75,13.42,KZ,1600396403
444,Austin,30.27,-97.74,78.01,83,40,9.17,US,1600395671
445,Mozarlândia,-14.74,-50.57,81.84,28,34,4.09,BR,1600396404
446,Usinsk,65.99,57.53,39.18,86,99,13.58,RU,1600396404
447,Kharp,66.8,65.81,44.47,79,100,7.83,RU,1600396404
448,Rincon,32.3,-81.24,80.6,74,90,5.82,US,1600396404
449,Aliwal North,-30.69,26.71,47.73,41,0,3.51,ZA,1600396405
450,Puerto Madryn,-42.77,-65.04,51.13,44,0,28.48,AR,1600396249
451,Nuuk,64.18,-51.72,37.4,69,100,13.87,GL,1600396405
452,High Rock,26.62,-78.28,83.55,74,100,10.51,BS,1600396405
453,Węgrów,52.4,22.02,46.0,85,41,9.62,PL,1600396214
454,Yangi Marg`ilon,40.43,71.72,59.0,51,6,2.24,UZ,1600396406
455,Churapcha,62.0,132.43,57.11,38,0,6.8,RU,1600396406
456,Butler,39.45,-84.57,66.2,63,90,9.17,US,1600396390
457,Turochak,52.26,87.12,56.91,75,100,3.04,RU,1600396406
458,Nova Viçosa,-17.89,-39.37,71.19,80,63,9.95,BR,1600396308
459,Chumikan,54.72,135.31,49.55,89,100,13.87,RU,1600396407
460,Marystown,47.17,-55.15,64.0,100,39,7.0,CA,1600396274
461,Caravelas,-17.71,-39.25,70.45,81,75,6.69,BR,1600396407
462,Ñuñoa,-14.48,-70.64,42.71,69,3,5.21,PE,1600396407
463,Hambantota,6.12,81.12,82.4,88,40,12.75,LK,1600396408
464,Shīeli,44.17,66.75,53.94,56,0,4.09,KZ,1600396408
465,Kewanee,41.25,-89.92,61.0,77,0,7.05,US,1600396408
466,Hualmay,-11.1,-77.61,59.61,84,5,5.61,PE,1600396158
467,Shar,49.59,81.05,59.29,41,100,19.77,KZ,1600396408
468,Sept-Îles,50.2,-66.38,28.4,86,5,2.24,CA,1600396120
469,Bilibino,68.05,166.44,36.46,80,98,6.35,RU,1600396409
470,Almaznyy,48.04,40.05,55.4,47,23,8.95,RU,1600396409
471,Rawson,-43.3,-65.1,50.05,46,5,24.81,AR,1600396409
472,San Ignacio,17.16,-89.07,81.0,77,8,3.2,BZ,1600396409
473,Rechka Vydrino,51.48,104.85,56.23,67,0,8.3,RU,1600396410
474,Mbouda,5.63,10.26,61.54,92,99,3.15,CM,1600396410
475,Columbia,34.0,-81.03,75.2,88,90,3.36,US,1600396310
476,Oruzgan,32.83,66.0,52.54,42,0,7.72,AF,1600396198
477,Qinhuangdao,39.93,119.59,74.84,33,0,9.15,CN,1600396410
478,Samarai,-10.62,150.67,79.93,86,100,15.1,PG,1600396411
479,Mandalgovi,45.76,106.27,57.97,41,0,1.39,MN,1600396411
480,Okitipupa,6.5,4.78,71.92,97,95,2.55,NG,1600396411
481,Netherburn,55.71,-3.91,50.0,92,32,0.81,GB,1600396411
482,Ventspils,57.39,21.56,53.6,66,40,18.34,LV,1600396412
483,Boundiali,9.52,-6.49,69.69,97,100,6.87,CI,1600396412
484,Owasso,36.27,-95.85,70.0,68,1,5.82,US,1600396412
485,Carauari,-4.88,-66.9,78.03,70,71,3.38,BR,1600396160
486,Salina Cruz,16.17,-95.2,81.0,81,100,4.61,MX,1600396219
487,Bat Khela,34.62,71.97,78.93,48,0,4.81,PK,1600396413
488,Turukhansk,65.82,87.98,53.64,80,100,10.83,RU,1600396413
489,Halifax,44.65,-63.57,62.01,97,80,4.09,CA,1600396403
490,Nome,64.5,-165.41,46.99,87,90,6.93,US,1600396413
491,Kunming,25.04,102.72,64.0,93,90,13.42,CN,1600396413
492,Omaruru,-21.43,15.93,51.24,51,0,1.95,NA,1600396414
493,Haines Junction,60.75,-137.51,43.68,67,99,10.13,CA,1600396414
494,Tigil',57.8,158.67,53.98,46,0,9.73,RU,1600396215
495,Fuzhou,26.06,119.31,82.4,83,75,17.9,CN,1600396232
496,Boende,-0.22,20.87,70.95,98,92,2.71,CD,1600396414
497,Kununurra,-15.77,128.73,95.0,32,54,9.17,AU,1600396415
498,Makakilo City,21.35,-158.09,87.8,58,40,9.17,US,1600396415
499,Xichang,27.9,102.26,67.23,65,89,2.13,CN,1600396415
500,São João del Rei,-21.14,-44.26,64.94,62,18,5.06,BR,1600396415
501,Charters Towers,-20.1,146.27,80.37,49,84,16.08,AU,1600396128
502,Talavera,15.62,120.93,84.2,74,75,11.41,PH,1600396416
503,Blackwater,-23.58,148.88,81.84,29,0,13.11,AU,1600396416
504,El Tigre,8.89,-64.25,76.66,82,90,4.9,VE,1600396416
505,Tiznit Province,29.58,-9.5,73.9,56,94,0.22,MA,1600396416
506,Port Macquarie,-31.43,152.92,75.0,73,75,12.75,AU,1600396276
507,Grand-Santi,4.25,-54.38,73.9,95,16,2.26,GF,1600396151
508,Ailigandí,9.23,-78.02,78.1,86,48,7.09,PA,1600396417
509,Labuhan,-6.88,112.21,88.02,50,65,10.8,ID,1600396417
510,Henties Bay,-22.12,14.28,53.01,93,0,4.0,NA,1600396200
511,Athy,52.99,-6.98,53.01,96,0,1.68,IE,1600396418
512,Cancún,21.17,-86.85,84.99,83,40,3.36,MX,1600396418
513,Ambon City,-3.7,128.18,86.0,70,100,5.82,ID,1600396418
514,Porto-Novo,6.5,2.6,78.8,83,20,9.17,BJ,1600396418
515,Druzhba,52.04,33.95,46.0,87,53,14.25,UA,1600396418
516,Byron Bay,-28.65,153.62,75.0,73,40,12.75,AU,1600396419
517,Robertsport,6.75,-11.37,77.41,85,100,9.98,LR,1600396419
518,Paamiut,61.99,-49.67,43.29,81,100,43.73,GL,1600396419
519,Aleksandrovskiy Zavod,50.92,117.94,50.88,73,99,9.82,RU,1600396419
520,Kyzyl-Suu,42.34,78.0,47.55,74,87,8.23,KG,1600396420
521,Dongsheng,39.82,109.98,62.35,30,0,2.73,CN,1600396420
522,Spirovo,57.42,34.98,44.67,96,94,4.61,RU,1600396420
523,Mayumba,-3.43,10.66,74.52,90,100,7.14,GA,1600396420
524,Kirkconnel,55.39,-4.0,50.0,93,35,2.24,GB,1600396421
525,Payo,-3.75,103.64,89.13,49,5,3.31,ID,1600396421
526,New Glasgow,45.58,-62.65,57.99,89,100,10.22,CA,1600396203
527,Gualeguaychú,-33.01,-58.52,56.34,70,0,7.85,AR,1600396421
528,Ugoofaaru,5.67,73.0,82.67,76,98,14.43,MV,1600396422
529,Killybegs,54.63,-8.45,55.0,96,0,5.55,IE,1600396422
530,Slantsy,59.12,28.09,47.16,81,100,13.96,RU,1600396422
531,Port Hardy,50.7,-127.42,64.4,88,75,6.93,CA,1600396422
532,Manado,1.49,124.85,87.8,62,20,3.36,ID,1600396206
533,Fomboni,-12.28,43.74,76.59,77,14,12.95,KM,1600396423
534,Akdağmadeni,39.66,35.88,56.39,39,0,3.06,TR,1600396423
535,Tilbury,51.46,0.36,60.01,63,65,4.0,GB,1600396423
536,Priiskovyy,51.93,116.63,55.26,53,96,9.42,RU,1600396423
537,Broome,42.25,-75.83,59.0,93,90,6.93,US,1600396424
538,Cidreira,-30.18,-50.21,59.97,89,1,6.51,BR,1600396424
539,Gejiu,23.31,103.16,63.73,83,84,4.7,CN,1600396424
540,Alyangula,-13.85,136.42,87.8,58,90,14.99,AU,1600396424
541,Waingapu,-9.66,120.26,85.64,54,29,8.81,ID,1600396152
542,Basoko,1.24,23.62,71.55,94,100,2.71,CD,1600396425
543,San Jose,37.34,-121.89,73.0,60,75,10.29,US,1600396296
544,Malakal,9.53,31.66,72.81,88,58,1.54,SS,1600396425
545,Moengo,5.62,-54.4,74.17,97,1,2.71,SR,1600396426
546,San Jerónimo,-11.95,-75.28,53.08,55,67,5.82,PE,1600396426
547,Durham,36.03,-78.87,69.8,100,90,12.75,US,1600396426
548,Palmer,42.16,-72.33,62.6,72,75,8.05,US,1600396426
549,Dmitriyevka,54.75,55.33,37.0,93,40,8.95,RU,1600396427
550,Kungurtug,50.6,97.52,62.76,35,17,1.25,RU,1600396427
551,Kiunga,-6.12,141.29,89.6,60,94,2.21,PG,1600396138
552,Beringovskiy,63.05,179.32,44.37,86,100,11.63,RU,1600396174
553,Abhā,18.22,42.51,64.4,22,38,5.41,SA,1600396243
